,Name,Road Name,Street Number,Neighborhood ID,Neighborhood Name,District ID,District Name,ZipCode,Service Type,geo_epgs_25831_x,geo_epgs_25831_y,Latitude,Longitude,Simple Service Type
0,Facultat d'Informació i Mitjans Audiovisuals - UB,Melcior de Palau,140.0,18,Sants,3,Sants-Montjuïc,8014,University,427989.3870489826,4581442.608604518,41.38128597939545,2.1387878130180185,University
1,Institut Fort Pius,C Ausiàs Marc,78.0,5,el Fort Pienc,2,Eixample,8013,Secondary School,431433.0122798908,4582860.628483669,41.39435850748892,2.179807258323757,High School
2,Escola Pia de Nostra Senyora,Carrer de la Diputació,277.0,7,la Dreta de l'Eixample,2,Eixample,8007,Secondary School & FP,430435.5250438276,4582521.196591505,41.39121569175179,2.167915583579481,High School
3,Institut Salvador Seguí,C Santander,7.0,73,la Verneda i la Pau,10,Sant Martí,8020,FP,432882.3765611512,4586037.508796598,41.42309401778554,2.196790431984144,FP
4,Escola de Música Kostka,Rier Can Toda,29.0,30,la Salut,6,Gràcia,8024,Music School,429568.0009359712,4585098.980271231,41.41435733730391,2.157239969018296,Music School
5,Centre Educatiu Sagrat Cor-Diputació,C Diputació,326.0,7,la Dreta de l'Eixample,2,Eixample,8009,"Kindergarten, Primary & Secondary School",430973.1477266591,4582969.27233023,41.39529768849395,2.174294558270453,General School (with kindergarten)
6,Centre Educatiu Sant Francesc d'Assís,Pl Universitat,2.0,10,Sant Antoni,2,Eixample,8007,Kindergarten & Primary School,430055.2078787113,4581854.856015,41.38518119971263,2.163443882097396,Kindergarten & Primary School
7,Centre Educatiu Sant Josep,C Montseny,31.0,31,la Vila de Gràcia,6,Gràcia,8012,"Kindergarten, Primary & Secondary School",429398.4948610284,4583769.305201496,41.40236658941899,2.155367068767063,General School (with kindergarten)
8,Escola Molí de Finestrelles,C Guardiola i Feliu,9.0,60,Sant Andreu,9,Sant Andreu,8030,Kindergarten & Primary School,432294.4179172824,4587789.423609436,41.43882358453997,2.1895586605815005,Kindergarten & Primary School
9,Escola Casas,C Sant Joan de Malta,44.0,65,el Clot,10,Sant Martí,8018,Kindergarten & Primary School,432533.8432695935,4584417.862516701,41.408477172101314,2.19280049740468,Kindergarten & Primary School
10,Institut Lluís Domènech i Montaner,C Alumini,48.0,13,la Marina de Port,3,Sants-Montjuïc,8038,Secondary School,427546.402888753,4578968.405666868,41.35896198846323,2.133786171216864,High School
11,Escola Catalònia,C Perú,195.0,71,Provençals del Poblenou,10,Sant Martí,8020,Kindergarten & Primary School,433255.111167792,4584900.318955642,41.41288273565778,2.201376087453191,Kindergarten & Primary School
12,Centre Educatiu Santa Teresa - Ganduxer,C Ganduxer,85.0,24,les Tres Torres,5,Sarrià-Sant Gervasi,8022,"Kindergarten, Primary & Secondary School",427574.4976352441,4583521.20323559,41.39996979813191,2.1335779353787503,General School (with kindergarten)
13,Escola Collaso i Gil,C Sant Pau,101.0,1,el Raval,1,Ciutat Vella,8001,Kindergarten & Primary School,430508.2946806711,4580855.235864935,41.3762171951022,2.1689769862080865,Kindergarten & Primary School
14,Escola del Mar,C Gènova,12.0,35,el Guinardó,7,Horta-Guinardó,8041,Kindergarten & Primary School,430651.08233966056,4585477.45780544,41.417860339923216,2.170154967138413,Kindergarten & Primary School
15,Escola Diputació,C Diputació,112.0,9,la Nova Esquerra de l'Eixample,2,Eixample,8015,Kindergarten & Primary School,429426.72407269967,4581452.4088119855,41.3815016061186,2.155974721321213,Kindergarten & Primary School
16,Escola Splai,C Maladeta,75.0,45,Porta,8,Nou Barris,8016,Kindergarten & Primary School,431018.76441650186,4587199.5710980855,41.433402432343165,2.174357822967229,Kindergarten & Primary School
17,Escola Els Porxos,Pl Eduard Torroja,12.0,72,Sant Martí de Provençals,10,Sant Martí,8020,Kindergarten & Primary School,433001.6175878183,4585111.132850232,41.41476038224248,2.1983198941026654,Kindergarten & Primary School
18,Centre Educatiu Asunción de Nuestra Señora,Rbla Poblenou,94.0,68,el Poblenou,10,Sant Martí,8005,"Kindergarten, Primary & Secondary School",433129.6536216488,4583715.520484379,41.40220115929684,2.2000060038823097,General School (with kindergarten)
19,Escola Superior d'Empresarials i Relacions Públiques,Girona,24.0,7,la Dreta de l'Eixample,2,Eixample,8010,University,431044.3041118478,4582595.091995233,41.39193366824314,2.175188257512289,University
20,Centre Educatiu Joan Roca Guipúzcoa,Rbla Guipúscoa,19.0,72,Sant Martí de Provençals,10,Sant Martí,8018,Kindergarten & Primary School,432616.3783429007,4585042.182445924,41.41410715754932,2.19371836762064,Kindergarten & Primary School
21,Escola Luthier de Música i Dansa,C Balmes,53.0,8,l'Antiga Esquerra de l'Eixample,2,Eixample,8007,Music School,429966.3976433531,4582329.013369794,41.389444050407896,2.162326984894252,Music School
22,Escola Poblenou,Carrer del Perú,139.0,71,Provençals del Poblenou,10,Sant Martí,8018,Kindergarten & Primary School,432913.7935478226,4584573.770072032,41.40991318696884,2.197328702708788,Kindergarten & Primary School
23,Escola Els Xiprers,Camí Salze,13.0,22,"Vallvidrera, el Tibidabo i les Planes",5,Sarrià-Sant Gervasi,8017,Kindergarten & Primary School,424996.3731843426,4585765.136794851,41.41994340301173,2.1024614168090343,Kindergarten & Primary School
24,Escola Parc de la Ciutadella,Pg Circumval.lació,5.0,4,"Sant Pere, Santa Caterina i la Ribera",1,Ciutat Vella,8003,Kindergarten & Primary School,432275.0752654949,4582021.1688439865,41.386869080055405,2.1899728376135026,Kindergarten & Primary School
25,Centre Educatiu Padre Damián Sagrados Corazones,Av Vallvidrera,10.0,23,Sarrià,5,Sarrià-Sant Gervasi,8017,"Kindergarten, Primary & Secondary School",426155.9692804455,4584146.89582665,41.40547609448432,2.116533753073015,General School (with kindergarten)
26,Centre Educatiu San Francisco,C Treball,213.0,72,Sant Martí de Provençals,10,Sant Martí,8020,"Kindergarten, Primary & Secondary School",433196.167653589,4585337.086685943,41.41681167843815,2.2006226443856365,General School (with kindergarten)
27,Institut  Dolors Aleu,Pl Ferran Reyes,2.0,63,Navas,9,Sant Andreu,8027,Secondary School,431977.6234462474,4585537.51448935,41.418514640985066,2.186020355339397,High School
28,Centre Educatiu Sant Lluís,C Aritjols,12.0,52,la Prosperitat,8,Nou Barris,8016,"Kindergarten, Primary & Secondary School",431669.3339090928,4588152.909943287,41.44204442038263,2.182035973634189,General School (with kindergarten)
29,Escola Tabor,C Cartagena,231.0,6,la Sagrada Família,2,Eixample,8013,Kindergarten & Primary School,431405.9422502555,4584296.751470833,41.40729090540173,2.179320759601953,Kindergarten & Primary School
30,Escola ETP Xavier,Avinguda de Francesc Cambó,12.0,4,"Sant Pere, Santa Caterina i la Ribera",1,Ciutat Vella,8003,Secondary School & FP,431233.916407316,4581918.357637107,41.385854760072434,2.1775328994208856,High School
31,Escola de Música del Palau,C Sant Pere Més Alt,6.0,4,"Sant Pere, Santa Caterina i la Ribera",1,Ciutat Vella,8003,Music School,431063.1020356654,4582075.203071774,41.38725279976831,2.1754722533379183,Music School
32,Institut Príncep de Viana,C Torroella de Montgrí,6.0,61,la Sagrera,9,Sant Andreu,8027,Secondary School,432079.7692438506,4586581.139338513,41.42792286266486,2.1871253300366518,High School
33,Centre Educatiu Jesuïtes Casp - Sagrat Cor de Jesús,C Casp,25.0,7,la Dreta de l'Eixample,2,Eixample,8010,Primary & Secondary School,430724.8012599306,4582386.991960319,41.39003192106885,2.171390716405784,General School
34,School of Architecture - UIC,Immaculada,22.0,25,Sant Gervasi - la Bonanova,5,Sarrià-Sant Gervasi,8017,University,426716.4668234499,4584203.063400844,41.406033260654574,2.123231960089889,University
35,Escola de Música Casp,C Roger de Llúria,19.0,7,la Dreta de l'Eixample,2,Eixample,8010,Music School,430746.9440245709,4582484.852010037,41.39091522231504,2.171644353423491,Music School
36,Institut Robòtica i Informàtica Industrial,C Llorens i Artigas,4.0,20,la Maternitat i Sant Ramon,4,Les Corts,8028,University,426088.55448720185,4581634.29532349,41.38284004736482,2.1160339544499878,University
37,Centre Educatiu Barcelona Vitae Les Corts,C Pintor Ribalta,2.0,20,la Maternitat i Sant Ramon,4,Les Corts,8028,FP,426004.7264015816,4581182.209717458,41.37876060351543,2.115086703291677,FP
38,Institut de Ciències de l'Educació de la Universitat Autònoma de Barcelona *Sant Pau,C Sant Antoni Maria Claret,171.0,35,el Guinardó,7,Horta-Guinardó,8025,University,431211.3219929034,4585020.379375686,41.41379174747705,2.176910232352591,University
39,Escola per a Infants,C Sant Quintí,89.0,35,el Guinardó,7,Horta-Guinardó,8041,"Kindergarten, Primary & Secondary School",431120.5558447624,4585165.244944917,41.41508872749402,2.175807785588492,General School (with kindergarten)
40,Edifici Sants,Melcior de Palau,140.0,18,Sants,3,Sants-Montjuïc,8014,University,427989.3870489826,4581442.608604518,41.38128597939545,2.1387878130180185,University
41,Institut Catala Enginyeria Civil,C Gran Capità,1.0,21,Pedralbes,4,Les Corts,8034,University,425619.5299676143,4581992.810721985,41.386025808317086,2.1103811501410736,University
42,Escola Superior d'Estudis Musicals Taller de Músics,C Segre,24.0,60,Sant Andreu,9,Sant Andreu,8030,Music School,432471.6342846804,4587355.370873239,41.43492914455279,2.1917282568652707,Music School
43,Universitat Nacional d'Educació a Distància *Barcelona,Av Rio de Janeiro,56.0,45,Porta,8,Nou Barris,8016,University,431531.4183728761,4587534.814936169,41.43646572009841,2.180455235272232,University
44,Escola Municipal de Música Eixample Joan Manuel Serrat,C Sardenya,368.0,6,la Sagrada Família,2,Eixample,8025,Music School,430639.5427238949,4584156.533681888,41.40596224827076,2.170168320535942,Music School
45,Escola de Música Municipal Sant Andreu - Mestre Pich Santasusana,C Segadors,2.0,60,Sant Andreu,9,Sant Andreu,8030,Music School,432513.2118355858,4587582.861665322,41.43698157136573,2.1922004613303185,Music School
46,Escola per a Infants i Adolescents,C Villarroel,170.0,8,l'Antiga Esquerra de l'Eixample,2,Eixample,8036,"Kindergarten, Primary & Secondary School",429084.6822184803,4582304.749422763,41.38914826078086,2.151784715500113,General School (with kindergarten)
47,Institut Escola Trinitat Nova,Carrer de la Pedrosa,16.0,53,la Trinitat Nova,8,Nou Barris,8033,"Kindergarten, Primary & Secondary School",431889.1456266119,4588893.495775172,41.4487332776949,2.184583502268608,General School (with kindergarten)
48,Escola 9 Graons,C Roger de Flor,217.0,7,la Dreta de l'Eixample,2,Eixample,8025,Kindergarten & Primary School,430528.4499038907,4583668.172421859,41.401554153546826,2.168895385331425,Kindergarten & Primary School
49,Fundació Institut de Recerca Biomèdica,C Baldiri Reixac,10.0,20,la Maternitat i Sant Ramon,4,Les Corts,8028,University,426126.9761371306,4581527.502374123,41.38188173843909,2.116506436518207,University
50,Escola Universitària d'Hostaleria i Turisme-CETT,Av Can Marcet,36.0,41,la Vall d'Hebron,7,Horta-Guinardó,8035,University,428831.1646092463,4587381.554872108,41.434850603451615,2.1481555636305814,University
51,Institut Escola El Til·ler,Passeig de Mollerussa,1.0,59,el Bon Pastor,9,Sant Andreu,8030,"Kindergarten, Primary & Secondary School",433389.1103036477,4587744.692262393,41.43851226233614,2.20266592075902,General School (with kindergarten)
52,Facultat d'Humanitats - UIC,C Immaculada,22.0,25,Sant Gervasi - la Bonanova,5,Sarrià-Sant Gervasi,8017,University,426716.4668234499,4584203.063400844,41.406033260654574,2.123231960089889,University
53,Fundació Barcelonabeta Brain Research Center,C Wellington,30.0,67,la Vila Olímpica del Poblenou,10,Sant Martí,8005,University,432269.7442620128,4582295.902162109,41.38934307942733,2.189878364819311,University
54,Facultat de Dret - UIC,C Immaculada,22.0,25,Sant Gervasi - la Bonanova,5,Sarrià-Sant Gervasi,8017,University,426716.44682364695,4584203.050400968,41.40603314174738,2.1232317224121497,University
55,Escola Cervantes,C Sant Pere Més Baix,31.0,4,"Sant Pere, Santa Caterina i la Ribera",1,Ciutat Vella,8003,Kindergarten & Primary School,431197.8017242793,4582085.150002151,41.38735392112421,2.1770820552623897,Kindergarten & Primary School
56,Centre Educatiu Forma't,C Vilardell,38.0,15,Hostafrancs,3,Sants-Montjuïc,8014,FP,428400.7272107012,4580686.70907023,41.37451457608572,2.143796010890021,FP
58,Facultat d'Educació Social i Treball Social Pere Tarrés - URL,C Santaló,29.0,26,Sant Gervasi - Galvany,5,Sarrià-Sant Gervasi,8021,University,428588.726886192,4583024.979291651,41.39559121946946,2.1457683225939386,University
59,Escola Tres Pins,C Tres Pins,28.0,11,el Poble-sec,3,Sants-Montjuïc,8038,Kindergarten & Primary School,429740.6553571353,4579840.990608531,41.3670155512874,2.159915577898196,Kindergarten & Primary School
60,Institut Vall d'Hebron,Pg Vall d'Hebron,93.0,39,Sant Genís dels Agudells,7,Horta-Guinardó,8035,Secondary School & FP,428227.511748312,4586064.059582371,41.42293079126446,2.1410874275389915,High School
61,Fundació Salut i Envelliment UAB,C Sant Antoni Maria Claret,171.0,35,el Guinardó,7,Horta-Guinardó,8041,University,431211.3219929034,4585020.379375686,41.41379174747705,2.176910232352591,University
62,Centre Educatiu Frederic Mistral-Tècnic Eulàlia,C Lluís Muntadas,3.0,25,Sant Gervasi - la Bonanova,5,Sarrià-Sant Gervasi,8035,"Kindergarten, Primary & Secondary School",427543.3595589938,4585280.83507077,41.415815232630926,2.132994795549118,General School (with kindergarten)
63,Centre Educatiu Barcelona Vitae Nou Barris,Avinguda de Rio de Janeiro,42.0,45,Porta,8,Nou Barris,8016,FP,431500.16,4587420.297,41.435431633542514,2.1800941010622124,FP
64,Escola Seat,Passatge d'Antonio Ruiz Villalba,6.0,13,la Marina de Port,3,Sants-Montjuïc,8038,Kindergarten & Primary School,427935.7530754827,4579085.263608764,41.36004942767377,2.1384266320287693,Kindergarten & Primary School
65,Escola Tàber,C Esports,9.0,23,Sarrià,5,Sarrià-Sant Gervasi,8017,Kindergarten & Primary School,425806.2087885047,4583645.936635669,41.40093198985838,2.112411119338429,Kindergarten & Primary School
66,Institut Joan Brossa,Av Mare Déu de Montserrat,78.0,33,el Baix Guinardó,7,Horta-Guinardó,8024,Secondary School & FP,430373.1691028056,4585165.608788363,41.41502759794825,2.166865625032984,High School
67,Escola Víctor Català,C Font de Canyelles,35.0,52,la Prosperitat,8,Nou Barris,8016,Kindergarten & Primary School,431234.6681847348,4587867.351636681,41.43943539520372,2.176865748121006,Kindergarten & Primary School
68,Escola Massana Centre Municipal d'Art i Disseny,Plaça de la Gardunya,9.0,1,el Raval,1,Ciutat Vella,8001,University,430666.21703693335,4581379.641778674,41.380953983657726,2.1708053338176225,University
69,Centre Educatiu Virolai,C Ceuta,16.0,37,el Carmel,7,Horta-Guinardó,8032,"Kindergarten, Primary, Secondary School & FP",429177.1476491386,4585491.559362617,41.41785879011815,2.1525177085636917,General School (with kindergarten)
70,Escola Dolors Monserdà-Santapau,Av Vallvidrera,9.0,23,Sarrià,5,Sarrià-Sant Gervasi,8017,Kindergarten & Primary School,426055.4592616591,4584124.847019702,41.40526827246749,2.1153340874935034,Kindergarten & Primary School
71,Escola Eduard Marquina,Carrer de Jaume Huguet,22.0,70,el Besòs i el Maresme,10,Sant Martí,8019,Kindergarten & Primary School,434321.9156883875,4585506.87625123,41.418433726641325,2.2140737280233225,Kindergarten & Primary School
72,Facultat de Farmàcia i Ciències de l'Alimentació - UB,Av Joan XXIII,27.0,20,la Maternitat i Sant Ramon,4,Les Corts,8028,University,426353.6108465615,4581926.040534257,41.38549197752809,2.119168154034765,University
73,Facultat d'Informàtica - UPC,Jordi Girona,1.0,21,Pedralbes,4,Les Corts,8034,University,425980.2854158732,4582197.376805042,41.38790151896208,2.1146704334958524,University
74,Centre Estudis Universitat California i Illinois,G.V. Corts Catalanes,585.0,8,l'Antiga Esquerra de l'Eixample,2,Eixample,8007,University,430105.756355228,4582009.3515178105,41.38657708352391,2.164030568391206,University
75,Institut Escola Costa i Llobera,C Capella de Can Caralleu,3.0,23,Sarrià,5,Sarrià-Sant Gervasi,8017,"Kindergarten, Primary & Secondary School",425516.4555775971,4583763.595424449,41.40196489590419,2.1089306933420966,General School (with kindergarten)
76,Centre Dona i Literatura,G.V. Corts Catalanes,585.0,8,l'Antiga Esquerra de l'Eixample,2,Eixample,8007,University,430105.756355228,4582009.3515178105,41.38657708352391,2.164030568391206,University
77,Centre Educatiu Sopeña Barcelona,C Violant Hongria Rna Aragó,39.0,17,Sants - Badal,3,Sants-Montjuïc,8028,Secondary School & FP,427115.6316183285,4581098.853772428,41.37811124129735,2.128380614084981,High School
78,Escola de Música,C Astúries,83.0,31,la Vila de Gràcia,6,Gràcia,8024,Music School,429489.3289236514,4584031.287665447,41.404734139288166,2.156423120771882,Music School
79,Facultat de Ciències Polítiques i Socials - UPF,C Ramon Trias Fargas,25.0,67,la Vila Olímpica del Poblenou,10,Sant Martí,8005,University,432353.5044327042,4582371.340442798,41.390029580136975,2.1908716995715816,University
80,Institut Joan Salvat-Papasseit,Pg Salvat Papasseit,11.0,3,la Barceloneta,1,Ciutat Vella,8003,Secondary School,432473.5584574441,4581416.542784344,41.38144005668372,2.192413963362347,High School
81,Biblioteca,Rbla Catalunya,6.0,7,la Dreta de l'Eixample,2,Eixample,8007,Library & Study Room,430453.8519427657,4582148.365233093,41.38785930522818,2.168177581579306,Library & Study Room
82,Escola Duran i Bas,C Vallespir,198.0,19,les Corts,4,Les Corts,8014,Kindergarten & Primary School,427534.7433726323,4581890.704134322,41.385280979372205,2.1332974994397182,Kindergarten & Primary School
83,Institut Escola Mirades,Carrer de Farnés,60.0,37,el Carmel,7,Horta-Guinardó,8032,"Kindergarten, Primary & Secondary School",429239.39084715454,4586431.663213035,41.42633140439301,2.1531524452640567,General School (with kindergarten)
84,Escola Els Horts,Rbla Prim,217.0,73,la Verneda i la Pau,10,Sant Martí,8020,Kindergarten & Primary School,433266.0588102664,4586167.5586050125,41.42429729902253,2.201367249809121,Kindergarten & Primary School
85,Centre Educatiu Escolàpies Llúria-Barcelona,C Aragó,302.0,7,la Dreta de l'Eixample,2,Eixample,8009,"Kindergarten, Primary & Secondary School",430446.613864422,4582867.7462127805,41.394337909215984,2.168008408286293,General School (with kindergarten)
86,Centre Educatiu Joan Pelegrí,Carrer del Consell de Cent,14.0,15,Hostafrancs,3,Sants-Montjuïc,8014,"Kindergarten, Primary, Secondary School & FP",428465.2305515664,4580836.573620921,41.37587008897511,2.14454959168278,General School (with kindergarten)
87,Institut Escola Eixample,València,252.0,7,la Dreta de l'Eixample,2,Eixample,8007,"Kindergarten, Primary & Secondary School",429922.7820215991,4582548.377220436,41.39141598738827,2.16177997203942,General School (with kindergarten)
88,Institut Jaume Balmes,C Pau Claris,121.0,7,la Dreta de l'Eixample,2,Eixample,8009,Secondary School & FP,430373.0996184871,4582676.154066816,41.392605941013386,2.1671511535111376,High School
89,Escola de Música Aula de Música 7,Av Diagonal,327.0,7,la Dreta de l'Eixample,2,Eixample,8009,Music School,430597.955290232,4583369.271351532,41.39886805495827,2.1697610759866617,Music School
90,Institut Nou Barris,Carrer de Badosa,10.0,52,la Prosperitat,8,Nou Barris,8016,Secondary School,431544.1031566756,4587992.852476961,41.44059217516373,2.1805551603178746,High School
91,Escola Torrent  Melis,Carrer de Varsòvia,161.0,35,el Guinardó,7,Horta-Guinardó,8041,Kindergarten & Primary School,430794.5589645056,4585389.602691236,41.41708143014222,2.171881720640319,Kindergarten & Primary School
92,Institut Icària,C Doctor Trueta,81.0,67,la Vila Olímpica del Poblenou,10,Sant Martí,8005,Secondary School,432837.1076531469,4582767.509673915,41.39363829928281,2.1966116595086373,High School
93,Escola Turó del Cargol,Av Coll del Portell,56.0,30,la Salut,6,Gràcia,8024,Kindergarten & Primary School,429166.835903757,4584757.360518074,41.41124524522704,2.152480292670107,Kindergarten & Primary School
94,Institut Montserrat,C Copèrnic,84.0,26,Sant Gervasi - Galvany,5,Sarrià-Sant Gervasi,8006,Secondary School,428372.3768397387,4583724.352424143,41.40187095521701,2.14309785173122,High School
95,Centre Educatiu Ramón y Cajal,C Rosselló,303.0,7,la Dreta de l'Eixample,2,Eixample,8037,FP,430178.3353624235,4583393.894024982,41.39905349511968,2.164738940810504,FP
96,Facultat de Ciències Econòmiques i Empresarials - UPF,C Ramon Trias Fargas,25.0,67,la Vila Olímpica del Poblenou,10,Sant Martí,8005,University,432362.0263673597,4582284.352293278,41.38924681822701,2.190983335170805,University
97,Institut L'Alzina,Ptge Salvador Riera,2.0,62,el Congrés i els Indians,9,Sant Andreu,8027,Secondary School,431396.3209527485,4586215.238766388,41.4245692469061,2.178988086911537,High School
98,Institut Barri Besòs,Carrer de Josep Pla,56.0,70,el Besòs i el Maresme,10,Sant Martí,8019,Secondary School,434217.18586032017,4584713.904961632,41.41128307627562,2.21290683597758,High School
99,Centre Especial de Recerca en Teories i Pràctiques Superadores de Desigualtats,Pg Vall d'Hebron,175.0,40,Montbau,7,Horta-Guinardó,8035,University,428748.82438690326,4587482.826868194,41.43575541409688,2.147158169831797,University
100,Escola Superior de Comerç Internacional,Pg Pujades,1.0,4,"Sant Pere, Santa Caterina i la Ribera",1,Ciutat Vella,8003,University,431614.1536632696,4582153.326421354,41.38800347000207,2.182053704014178,University
101,Institució Cultural del C.I.C.,Via Augusta,205.0,26,Sant Gervasi - Galvany,5,Sarrià-Sant Gervasi,8021,Languages School,428016.49039571686,4583264.479834049,41.397697285981785,2.1388954166038783,Languages School
102,Centre Educatiu  Princesa Margarita,Pg Font d'en Fargas,15.0,36,la Font d'en Fargues,7,Horta-Guinardó,8032,"Kindergarten, Primary & Secondary School",430300.61155028094,4586407.737666469,41.42620869422536,2.1658543596995137,General School (with kindergarten)
103,Jam Session Escola de Música,Sant Germà,8.0,14,la Font de la Guatlla,3,Sants-Montjuïc,8004,Music School,428618.7931480432,4580413.7047815705,41.37207509307847,2.146435570974566,Music School
104,Institut Valldemossa,C Pintor Alsamora,7.0,45,Porta,8,Nou Barris,8016,Secondary School,431535.9623757112,4587303.96818602,41.43438695568421,2.180535772369523,High School
105,Facultat de Biologia - UB,Av Diagonal,645.0,20,la Maternitat i Sant Ramon,4,Les Corts,8028,University,426175.9125762919,4581915.246600833,41.38537847387165,2.1170443890573285,University
106,Institut Rubió i Tudurí,Pg Mollerussa,71.0,59,el Bon Pastor,9,Sant Andreu,8030,FP,433751.8727718292,4587803.912756724,41.43907565411945,2.2070013035465075,FP
107,Institut de Ciències de l'Educació de la Universitat de Barcelona,Pg Vall d'Hebron,171.0,40,Montbau,7,Horta-Guinardó,8035,University,428748.82438690326,4587482.826868194,41.43575541409688,2.147158169831797,University
108,Institut Universitari del  Pròxim Orient Antic,G.V. Corts Catalanes,585.0,8,l'Antiga Esquerra de l'Eixample,2,Eixample,8007,University,430105.756355228,4582009.3515178105,41.38657708352391,2.164030568391206,University
109,Institut de Matemàtica,G.V. Corts Catalanes,585.0,8,l'Antiga Esquerra de l'Eixample,2,Eixample,8007,University,430105.756355228,4582009.3515178105,41.38657708352391,2.164030568391206,University
110,Escola Tècnica Superior d'Arquitectura de Barcelona - UPC,Av Diagonal,649.0,20,la Maternitat i Sant Ramon,4,Les Corts,8028,University,425867.6635953816,4581812.363537365,41.384423505592665,2.113370660627247,University
111,Institut de Ciències Polítiques i Socials,C Mallorca,244.0,7,la Dreta de l'Eixample,2,Eixample,8008,University,429920.8540014763,4582734.974399529,41.39309643628034,2.16173532171433,University
112,Fundació Aula Aegyptiaca,C Balmes,58.0,7,la Dreta de l'Eixample,2,Eixample,8007,University,429983.8934706202,4582341.884247834,41.38956149722731,2.162534743579912,University
113,Escola Ítaca,Carrer de Numància,140.0,19,les Corts,4,Les Corts,8029,Kindergarten & Primary School,427599.389670253,4582234.399794392,41.38838232973607,2.134029525864466,Kindergarten & Primary School
114,Centre Universitari EAE,C Aragó,55.0,9,la Nova Esquerra de l'Eixample,2,Eixample,8015,University,428839.8328044723,4581330.227881447,41.38034947242665,2.1489708474391604,University
115,"Centre Educatiu Jesús, Maria i Josep",C Sant Sebastià,55.0,60,Sant Andreu,9,Sant Andreu,8030,"Kindergarten, Primary & Secondary School",432477.73536585545,4586655.258695906,41.428623982737015,2.1918794854045887,General School (with kindergarten)
116,Escola la Farigola de Vallcarca,C Sant Camil,31.0,28,Vallcarca i els Penitents,6,Gràcia,8023,Kindergarten & Primary School,428684.9705220079,4585049.295570593,41.4138319736047,2.146680968580762,Kindergarten & Primary School
117,Escola La Farigola del Clot,Carrer d'Hernán Cortés,6.0,65,el Clot,10,Sant Martí,8018,Kindergarten & Primary School,432137.28117943474,4584131.240232374,41.405862270546855,2.188088422236328,Kindergarten & Primary School
118,Centre d'Estudis Històrics Internacionals,Jorge Manrique,9.0,41,la Vall d'Hebron,7,Horta-Guinardó,8035,University,429104.7590482898,4586934.176288257,41.43084545648815,2.151482440531504,University
119,Centre Educatiu Nou Patufet,C Bruniquer,25.0,31,la Vila de Gràcia,6,Gràcia,8012,"Kindergarten, Primary & Secondary School",429848.61843320006,4584031.666736465,41.40476898599986,2.160721107653559,General School (with kindergarten)
120,Institut Anna Gironella de Mundet,Pg Vall d'Hebron,171.0,40,Montbau,7,Horta-Guinardó,8035,Secondary School & FP,428749.24038276897,4587483.286863798,41.435759593982205,2.147163094335721,High School
121,Escola Universitària d'Infermeria - UAB,Sant Antoni Maria Claret,167.0,35,el Guinardó,7,Horta-Guinardó,8025,University,431113.7429716268,4584868.611835484,41.41241647123583,2.1757600481895056,University
122,Granja-Escola Sinaí,C Indústria,137.0,6,la Sagrada Família,2,Eixample,8025,FP,430900.64911154966,4584526.115131442,41.40931342894633,2.1732496979114297,FP
123,Escola Pompeu Fabra,Carrer d'Olesa,19.0,62,el Congrés i els Indians,9,Sant Andreu,8027,Kindergarten & Primary School,431760.9824762242,4585900.952903217,41.42176963946599,2.183387199234325,Kindergarten & Primary School
124,Escola Politècnica Superior d'Edificació de Barcelona - UPC,Av Doctor Marañón,44.0,20,la Maternitat i Sant Ramon,4,Les Corts,8028,University,425815.8111156599,4581738.818243703,41.383756336159095,2.1127595762315243,University
125,Centre d'Història Contemporània de Catalunya,Plaça de Pau Vila,3.0,3,la Barceloneta,1,Ciutat Vella,8003,University,431926.0597929916,4581354.891276275,41.3808386412199,2.1858736814996145,University
126,Consorci Universitat Internacional Menéndez Pelayo de Barcelona - Centre Ernest Lluch,C Montalegre,5.0,1,el Raval,1,Ciutat Vella,8001,University,430335.5441832022,4581711.515471728,41.38391450226559,2.1668129104163323,University
127,Escola de Bosc de Montjuïc,Av Miramar,11.0,11,el Poble-sec,3,Sants-Montjuïc,8038,Kindergarten & Primary School,429838.2253574343,4580083.686259034,41.36920994679894,2.1610540123451862,Kindergarten & Primary School
128,Grup d'Estudi i Conservació dels Mamifers Marins,Baldiri Reixac,4.0,20,la Maternitat i Sant Ramon,4,Les Corts,8028,University,426122.9891761777,4581526.199385967,41.38186963690709,2.116458918258774,University
129,Institut Menéndez y Pelayo,Via Augusta,140.0,26,Sant Gervasi - Galvany,5,Sarrià-Sant Gervasi,8006,Secondary School,428513.7695087025,4583523.48841316,41.40007443665589,2.1448129112351144,High School
130,Centre Educatiu Prínceps 23 d'Abril,Carrer de l'Artesania,38.0,51,Verdun,8,Nou Barris,8042,Kindergarten & Primary School,431054.2258445,4587888.0826521,41.43960663778714,2.1747036678359866,Kindergarten & Primary School
131,Escola Ramon Llull,Av Diagonal,275.0,5,el Fort Pienc,2,Eixample,8013,Kindergarten & Primary School,431272.1736945114,4583587.472360917,41.40089123271555,2.1778010071630134,Kindergarten & Primary School
132,Centre Educatiu Reina Elisenda,C Olot,18.0,30,la Salut,6,Gràcia,8024,Kindergarten & Primary School,429243.9241029491,4585005.179118075,41.413484039930026,2.153373576136896,Kindergarten & Primary School
133,Escola Poeta Foix,Carrer de Balmes,298.0,27,el Putxet i el Farró,5,Sarrià-Sant Gervasi,8006,Kindergarten & Primary School,428605.3455666174,4583770.129026951,41.40230396822659,2.1458792280425274,Kindergarten & Primary School
134,Institut de Recerca de la Biodiversitat,Av Diagonal,645.0,20,la Maternitat i Sant Ramon,4,Les Corts,8028,University,426175.9125762919,4581915.246600833,41.38537847387165,2.1170443890573285,University
135,Institut de Biomedicina,Av Diagonal,645.0,20,la Maternitat i Sant Ramon,4,Les Corts,8028,University,426175.9125762919,4581915.246600833,41.38537847387165,2.1170443890573285,University
136,Centre de Recerca d'Estudis de Ciutadania i Societat Civil,C Adolf Florensa,8.0,20,la Maternitat i Sant Ramon,4,Les Corts,8028,University,426047.25190271344,4581570.6799353,41.38226329588716,2.1155478041707734,University
137,Centre de Recerca en Enginyeria Biomèdica,C Pau Gargallo,5.0,20,la Maternitat i Sant Ramon,4,Les Corts,8028,University,425874.8815385855,4581751.678131161,41.38387760418612,2.113464402113061,University
138,Unitat Docent Hospital Universitari de la Santa Creu i Sant Pau,C Sant Antoni Maria Claret,167.0,35,el Guinardó,7,Horta-Guinardó,8025,University,431113.7429716268,4584868.611835484,41.41241647123583,2.1757600481895056,University
139,Centre de Comunicacions Avançades de Banda Ampla,C Jordi Girona,1.0,21,Pedralbes,4,Les Corts,8034,University,426059.4436054225,4582384.122000245,41.38959072976704,2.115594320152307,University
140,Centre de Desenvolupament Acústic,Pg Bonanova,8.0,25,Sant Gervasi - la Bonanova,5,Sarrià-Sant Gervasi,8022,University,427490.32430290646,4584218.240419642,41.40624012732789,2.132487589410652,University
141,Centre de Llenguatge i Computació,C Adolf Florensa,8.0,20,la Maternitat i Sant Ramon,4,Les Corts,8028,University,426047.25190271344,4581570.6799353,41.38226329588716,2.1155478041707734,University
142,Centre Educatiu de Justícia  Can Llupià,C Germans Desvalls,58.0,43,Horta,7,Horta-Guinardó,8035,Secondary School,428719.9465436732,4588066.195179557,41.44100698737053,2.146743735511176,High School
143,Centre Tecnològic de l'Aigua,Pg Til.lers,3.0,21,Pedralbes,4,Les Corts,8034,University,426224.7840002755,4582375.634119178,41.38952946529558,2.1175727710884056,University
144,Facultat de Psicologia i Ciències de l'Educació i de l'Esport Blanquerna - URL,Císter,34.0,25,Sant Gervasi - la Bonanova,5,Sarrià-Sant Gervasi,8022,University,427566.8664239712,4584847.468300698,41.41191420929642,2.1333279293214424,University
145,Facultat de Filosofia La Salle - URL,Diputació,231.0,8,l'Antiga Esquerra de l'Eixample,2,Eixample,8007,University,430058.748782826,4582150.531130458,41.38784455590361,2.163452092831893,University
146,Centre Educatiu Grey,Pg Valldaura,208.0,48,la Guineueta,8,Nou Barris,8042,Kindergarten & Primary School,430843.87799772696,4587764.929554733,41.43847935666648,2.172200104455579,Kindergarten & Primary School
147,Escola Mediterrània,Passeig Marítim de la Barceloneta - Oriol Bohigas,5.0,3,la Barceloneta,1,Ciutat Vella,8003,Kindergarten & Primary School,432451.0057211068,4581195.449937797,41.37944683668936,2.1921689125554478,Kindergarten & Primary School
148,Facultat de Comunicació *Campus de la Comunicació-Poblenou - UPF,C Roc Boronat,138.0,66,el Parc i la Llacuna del Poblenou,10,Sant Martí,8018,University,432574.3789791466,4583902.194553516,41.40383610308015,2.1933428895948404,University
149,Institut Josep Serrat i Bonastre,C Marquès de Santa Ana,4.0,27,el Putxet i el Farró,5,Sarrià-Sant Gervasi,8023,Secondary School & FP,428796.5886098558,4584236.961514615,41.40652550464127,2.148111979836685,High School
150,Centre Educatiu Valldaura,C Santa Engràcia,110.0,52,la Prosperitat,8,Nou Barris,8016,"Kindergarten, Primary & Secondary School",431501.8705290528,4588176.766677074,41.44224501898773,2.180028816251742,General School (with kindergarten)
151,Centre Educatiu Vedruna Gràcia Barcelona,C Gran de Gràcia,234.0,31,la Vila de Gràcia,6,Gràcia,8012,"Kindergarten, Primary & Secondary School",429070.7679893395,4584033.558555778,41.40471777195005,2.151415793082498,General School (with kindergarten)
152,Escola L'Univers,C Bailèn,225.0,31,la Vila de Gràcia,6,Gràcia,8037,Kindergarten & Primary School,429988.0241195135,4583836.52866843,41.403023600259,2.162411332550266,Kindergarten & Primary School
153,Centre Educatiu Jesús Maria,Av Meridiana,392.0,60,Sant Andreu,9,Sant Andreu,8030,"Kindergarten, Primary & Secondary School",431787.4220052524,4586958.593601774,41.43129768790304,2.1835842437481827,General School (with kindergarten)
154,Escola Municipal de Música Nou Barris,Av Rio de Janeiro,11.0,45,Porta,8,Nou Barris,8016,Music School,431619.1706385356,4586957.469578766,41.43127325717091,2.181570818067009,Music School
155,Escola Dovella,C Mallorca,595.0,64,el Camp de l'Arpa del Clot,10,Sant Martí,8026,Kindergarten & Primary School,431946.3909094509,4584746.420195385,41.41138686621241,2.185735644870212,Kindergarten & Primary School
156,Escola el Polvorí,Camí Polvorí,8.0,13,la Marina de Port,3,Sants-Montjuïc,8038,Kindergarten & Primary School,428313.60431423184,4579484.156793411,41.363675852978446,2.1428964534405965,Kindergarten & Primary School
157,Escola Timbaler del Bruc,C Arnau d'Oms,4.0,44,Vilapicina i la Torre Llobeta,8,Nou Barris,8016,Kindergarten & Primary School,431272.77806376055,4586648.183522251,41.428458064742514,2.177460524074598,Kindergarten & Primary School
158,Centre Educatiu La Salle Comtal,C Amadeu Vives,6.0,4,"Sant Pere, Santa Caterina i la Ribera",1,Ciutat Vella,8003,"Kindergarten, Primary & Secondary School",431044.312201582,4582156.838271352,41.38798645267699,2.175238245379301,General School (with kindergarten)
159,Centre Educatiu La Salle Gràcia,Pl Nord,14.0,31,la Vila de Gràcia,6,Gràcia,8024,"Kindergarten, Primary, Secondary School & FP",429381.0229242827,4584276.850248174,41.40693632168589,2.155098850329748,General School (with kindergarten)
160,Institut Escola Elisabets,Carrer d'Elisabets,8.0,4,"Sant Pere, Santa Caterina i la Ribera",1,Ciutat Vella,8001,"Kindergarten, Primary & Secondary School",430451.5290576984,4581701.588592486,41.38383512912371,2.1682010889197034,General School (with kindergarten)
161,Escola Lavínia,C Fígols,20.0,19,les Corts,4,Les Corts,8028,Kindergarten & Primary School,427270.5290281466,4581487.746010092,41.38162785445061,2.130186146369242,Kindergarten & Primary School
162,Institut Escola Tres Fonts de les Corts,Carrer d'Eugeni d'Ors,2.0,19,les Corts,4,Les Corts,8028,"Kindergarten, Primary & Secondary School",427144.03819600673,4581773.574193383,41.38419074883434,2.128639170001322,General School (with kindergarten)
163,Institut de Recerca Vall d'Hebron,Pg Vall d'Hebron,119.0,40,Montbau,7,Horta-Guinardó,8035,University,428430.55465668254,4586630.37210656,41.42804943371883,2.1434499797388105,University
164,Servei de Desenvolupament del Medicament,Av Joan XXIII,27.0,20,la Maternitat i Sant Ramon,4,Les Corts,8028,University,426604.4384109238,4581914.126705064,41.385407598236654,2.122169228198821,University
165,Unitat de Recerca en Informàtica Biomèdica,Passeig Marítim de la Barceloneta - Oriol Bohigas,37.0,3,la Barceloneta,1,Ciutat Vella,8003,University,432785.0033372476,4581877.834344472,41.38562087271976,2.1960871806342315,University
166,Escola Mallorca,C Londres,64.0,8,l'Antiga Esquerra de l'Eixample,2,Eixample,8036,Kindergarten & Primary School,428796.5039657302,4582558.850882947,41.3914113999224,2.1483083211249405,Kindergarten & Primary School
167,Unitat d'Investigació Biofarmacèutica i Farmacocinètica,Av Joan XXIII,27.0,20,la Maternitat i Sant Ramon,4,Les Corts,8028,University,426607.4383841611,4581903.126813058,41.38530880058172,2.1222064371428457,University
168,Institut Mare de Déu de la Mercè,C Motors,122.0,12,la Marina del Prat Vermell,3,Sants-Montjuïc,8040,FP,428414.07066297793,4577952.336777577,41.3498881916577,2.144278261786436,FP
169,Institut Escola Artístic Oriol Martorell,C Artesania,39.0,48,la Guineueta,8,Nou Barris,8042,Primary & Secondary Music School,430897.3974123851,4588086.646431962,41.44138154205598,2.1728038734254254,General School
170,Centro de Estudios de Nuevas Técnicas Estéticas,Pl Sant Miquel,2.0,2,el Barri Gòtic,1,Ciutat Vella,8002,FP,431172.8480862905,4581501.248695316,41.3820927603217,2.1768499537814496,FP
171,Escola de Música Joan Llongueres,C Sèneca,22.0,31,la Vila de Gràcia,6,Gràcia,8006,Music School,429459.4423967837,4583159.179165294,41.39687675793019,2.1561672197184523,Music School
172,Escola  de les Aigües,C Sardenya,420.0,33,el Baix Guinardó,7,Horta-Guinardó,8025,Kindergarten & Primary School,430370.00728480046,4584434.226918608,41.40844003176645,2.1669119630500093,Kindergarten & Primary School
173,Escola de Musica i Arts Escèniques Musicart 102,C Artesania,102.0,51,Verdun,8,Nou Barris,8042,Music School,430849.1278415595,4588277.420564004,41.443095613027936,2.172204281156008,Music School
174,Centre Educatiu Vedruna Immaculada Barcelona,C Dos de Maig,251.0,6,la Sagrada Família,2,Eixample,8013,"Kindergarten, Primary & Secondary School",431570.6196512609,4584293.446536417,41.40727517438066,2.181291188299981,General School (with kindergarten)
175,IQS School of Engineering - URL,Via Augusta,390.0,23,Sarrià,5,Sarrià-Sant Gervasi,8017,University,426398.7099637597,4583957.872722917,41.40379591152728,2.1194605457742592,University
176,Centre de Transferència de Tecnologia de la Universitat Politècnica de Catalunya,Pl Eusebi Güell,6.0,21,Pedralbes,4,Les Corts,8034,University,425961.0995401115,4582480.263040692,41.39044758234289,2.1144064064040826,University
177,Centre de Tecnologies Avançades en Química Fina i Síntesi Assimètrica,C Josep Samitier,1.0,20,la Maternitat i Sant Ramon,4,Les Corts,8028,University,425962.9487126691,4581614.409490075,41.382649395415946,2.1145343363203266,University
178,Centre de Recerca en Economia Financera,C Ramon Trias Fargas,25.0,67,la Vila Olímpica del Poblenou,10,Sant Martí,8005,University,432362.0263673597,4582284.352293278,41.38924681822701,2.190983335170805,University
179,Centre d'Estudis de Risc Tecnològic,Av Diagonal,647.0,20,la Maternitat i Sant Ramon,4,Les Corts,8028,University,426025.30305167846,4581863.652071393,41.38489994951897,2.115249564660417,University
180,"Centre de Recerca i Investigació de Catalunya, S.A.",C Margalló,12.0,22,"Vallvidrera, el Tibidabo i les Planes",5,Sarrià-Sant Gervasi,8017,University,424366.8351557194,4586392.726538286,41.42553674649396,2.094850391129139,University
181,Centre d'Integritat Estructural i Fiabilitat de Materials,Av Diagonal,647.0,20,la Maternitat i Sant Ramon,4,Les Corts,8028,University,426018.4441241863,4581837.127328736,41.38466042213047,2.115170778876513,University
182,Innova de la Universitat Politècnica de Catalunya,C Jordi Girona,29.0,21,Pedralbes,4,Les Corts,8034,University,425996.6322557616,4582202.929754439,41.38795303595182,2.1148652528365357,University
183,Institut de Recerca en Economia Aplicada Regional i Pública,Av Diagonal,690.0,21,Pedralbes,4,Les Corts,8034,University,426002.6552524405,4581951.840205859,41.38569213816947,2.114967953157307,University
184,Centre Educatiu Sagrada Família *Avinyó,C Avinyó,20.0,2,el Barri Gòtic,1,Ciutat Vella,8002,Kindergarten & Primary School,431163.72919693415,4581393.787742275,41.381124110699375,2.1767531127731368,Kindergarten & Primary School
185,Centre Educatiu Molina,C Lorena,61.0,48,la Guineueta,8,Nou Barris,8042,Secondary School & FP,430863.7958122052,4587727.162926689,41.4381409225732,2.172442818299853,High School
186,Servei Crei-Mundet,Pg Vall d'Hebron,171.0,40,Montbau,7,Horta-Guinardó,8035,University,428748.82438690326,4587482.826868194,41.43575541409688,2.147158169831797,University
187,Centre Educatiu FEP Sant Medir,C Constitució,15.0,16,la Bordeta,3,Sants-Montjuïc,8014,"Kindergarten, Primary & Secondary School",427902.0251681852,4580183.57587625,41.36993851664151,2.1378928721475967,General School (with kindergarten)
188,Aula de Música,C Pujades,176.0,68,el Poblenou,10,Sant Martí,8005,Music School,433140.2485422849,4583596.858643833,41.401133285382,2.200145848591939,Music School
189,Centre Educatiu San Rafael,C Menorca,80.0,72,Sant Martí de Provençals,10,Sant Martí,8020,Kindergarten & Primary School,433070.7937771772,4585809.447056751,41.421055653974776,2.1990702860756914,Kindergarten & Primary School
190,Institut Universitari d'Història Jaume Vicens Vives,C Ramon Trias Fargas,25.0,67,la Vila Olímpica del Poblenou,10,Sant Martí,8005,University,432362.0263673597,4582284.352293278,41.38924681822701,2.190983335170805,University
191,Escola de Música Accent,C Castillejos,265.0,6,la Sagrada Família,2,Eixample,8013,Music School,431322.4180817797,4584197.871418123,41.40639319349842,2.17833277147071,Music School
192,Secretaria,Rbla Poblenou,156.0,71,Provençals del Poblenou,10,Sant Martí,8018,University,432675.4129388325,4584195.915709212,41.40649003199119,2.19451883908909,University
193,Escola Estel-Guinardó,C Telègraf,58.0,35,el Guinardó,7,Horta-Guinardó,8041,Kindergarten & Primary School,430855.6073610643,4585441.31219965,41.41755241454136,2.172606246971933,Kindergarten & Primary School
194,Institut Flos i Calcat,Av Rio de Janeiro,92.0,45,Porta,8,Nou Barris,8016,Secondary School & FP,431682.1308716742,4587725.2841111785,41.43819404222232,2.182237500103421,High School
195,Escola Font d'en Fargas,Passeig de la Font d'en Fargas,65.0,36,la Font d'en Fargues,7,Horta-Guinardó,8032,Kindergarten & Primary School,430245.3141685381,4586014.587486582,41.42266294217902,2.165237995113779,Kindergarten & Primary School
196,Centre Educatiu Garbiñe,C Física,12.0,13,la Marina de Port,3,Sants-Montjuïc,8038,Kindergarten & Primary School,427850.0207897697,4579643.803135728,41.36507231839673,2.1373353221576155,Kindergarten & Primary School
197,Escola  Prim,C Bernat Metge,20.0,70,el Besòs i el Maresme,10,Sant Martí,8019,Kindergarten & Primary School,434134.5464698674,4585700.909323444,41.42016599271571,2.2118106773514707,Kindergarten & Primary School
198,Centre de  Recerca en Economia Internacional,C Ramon Trias Fargas,25.0,67,la Vila Olímpica del Poblenou,10,Sant Martí,8005,University,432362.0263673597,4582284.352293278,41.38924681822701,2.190983335170805,University
199,Escola de Polítiques Socials i Urbanes,Pg Urrutia,17.0,47,Can Peguera,8,Nou Barris,8042,University,430233.383969548,4587534.035678652,41.43634697822765,2.1649198810016106,University
200,Centre Educatiu Laia,C Neopàtria,74.0,60,Sant Andreu,9,Sant Andreu,8030,Kindergarten & Primary School,432274.9593196783,4586727.442951994,41.429257050664624,2.18944476551275,Kindergarten & Primary School
201,Institut Lluïsa Cura,Rda Sant Antoni,19.0,10,Sant Antoni,2,Eixample,8011,FP,430030.7252166935,4581374.104701786,41.38084909970436,2.163206607694735,FP
202,Escola el Turó,Carrer del Peñalara,19.0,46,el Turó de la Peira,8,Nou Barris,8031,Kindergarten & Primary School,430739.17717266624,4586992.021063142,41.43150904588072,2.171035538569442,Kindergarten & Primary School
203,Aula de Poesia de Barcelona,Pg Vall d'Hebron,171.0,40,Montbau,7,Horta-Guinardó,8035,University,428748.82438690326,4587482.826868194,41.43575541409688,2.147158169831797,University
204,Facultat d'Humanitats - UPF,C Ramon Trias Fargas,25.0,67,la Vila Olímpica del Poblenou,10,Sant Martí,8005,University,432362.0263673597,4582284.352293278,41.38924681822701,2.190983335170805,University
205,Centre Educatiu Colomer,C Leiva,17.0,15,Hostafrancs,3,Sants-Montjuïc,8014,FP,428269.2205044305,4580616.893723901,41.3738740636486,2.142231847171299,FP
206,Escola Octavio Paz,C Mallorca,657.0,63,Navas,9,Sant Andreu,8027,Kindergarten & Primary School,432245.418937894,4585080.32699995,41.41441952422686,2.189275790172815,Kindergarten & Primary School
207,Centre de Coneixement i Recerca,Pl Jaume Sabartés,1.0,4,"Sant Pere, Santa Caterina i la Ribera",1,Ciutat Vella,8003,University,431575.79808950296,4581890.719976174,41.38563498781616,2.181624647512792,University
208,Escola Superior d'Administració i Direcció d'Empreses - URL,Av Pedralbes,60.0,21,Pedralbes,4,Les Corts,8034,University,425972.6963469717,4582845.855476461,41.39374137478776,2.11450041725389,University
209,Institut de Ciències del Cosmos,Carrer de Martí i Franquès,1.0,20,la Maternitat i Sant Ramon,4,Les Corts,8028,University,426247.273,4581879.573,41.38506372270051,2.1179021240670406,University
210,Centre Educatiu Grup Escolar Roca,Av Meridiana,237.0,63,Navas,9,Sant Andreu,8027,Kindergarten & Primary School,432029.8589150807,4585656.119343737,41.41958729626797,2.186632034178383,Kindergarten & Primary School
211,Escola Segre,Carrer del Segre,35.0,60,Sant Andreu,9,Sant Andreu,8030,Kindergarten & Primary School,432584.9312150047,4587206.215348983,41.43359527001918,2.1931008578878304,Kindergarten & Primary School
212,Escola Mare de Déu de Montserrat *Natzaret,C Natzaret,83.0,39,Sant Genís dels Agudells,7,Horta-Guinardó,8035,Kindergarten & Primary School,427789.1899264408,4586424.650974961,41.426139197286666,2.135799470179093,Kindergarten & Primary School
213,Escola Mare Nostrum,Passeig de Valldaura,12.0,43,Horta,7,Horta-Guinardó,8031,Kindergarten & Primary School,429374.3072947217,4587588.981965185,41.43676676062335,2.154631703068711,Kindergarten & Primary School
214,Centre Educatiu Madres Concepcionistas de la Enseñanza,C Torre,19.0,27,el Putxet i el Farró,5,Sarrià-Sant Gervasi,8006,"Kindergarten, Primary & Secondary School",428883.7108049858,4584040.857445316,41.40476698451717,2.1491772544468377,General School (with kindergarten)
215,Escola Mestre Morera,C Perafita,48.0,55,Ciutat Meridiana,8,Nou Barris,8033,Kindergarten & Primary School,430494.6409025629,4590110.659641598,41.45957621396604,2.167750181482561,Kindergarten & Primary School
216,Institut Narcís Monturiol *Salvat Papasseit,Pg Salvat Papasseit,5.0,3,la Barceloneta,1,Ciutat Vella,8003,FP,432506.2411430063,4581399.9889524365,41.38129370288954,2.1928066401883046,FP
217,Centre Educatiu Nostra Senyora de Lurdes,Via Augusta,73.0,26,Sant Gervasi - Galvany,5,Sarrià-Sant Gervasi,8006,Kindergarten & Primary School,429011.99866287207,4583547.076288044,41.40033102573054,2.150769811574501,Kindergarten & Primary School
218,Centre Educatiu Verns,C Cantàbria,31.0,72,Sant Martí de Provençals,10,Sant Martí,8020,Kindergarten & Primary School,433198.4535591303,4585701.253136562,41.42009180785798,2.200609775325304,Kindergarten & Primary School
219,Centre Educatiu Jesuïtes Gràcia-Kostka,Rier Can Toda,29.0,30,la Salut,6,Gràcia,8024,"Kindergarten, Primary & Secondary School",429568.0009359712,4585098.980271231,41.41435733730391,2.157239969018296,General School (with kindergarten)
220,Escola Baldiri Reixac,Carrer d'Olot,1.0,30,la Salut,6,Gràcia,8024,Kindergarten & Primary School,429223.3613020187,4585008.180084515,41.41350925781701,2.153127208234728,Kindergarten & Primary School
221,Escola Barcelona,C Joan Güell,126.0,19,les Corts,4,Les Corts,8028,Kindergarten & Primary School,427427.08149887086,4581521.380715476,41.381944925333066,2.132054213499209,Kindergarten & Primary School
222,Centre Educatiu FEDAC-Amílcar,C Amílcar,10.0,44,Vilapicina i la Torre Llobeta,8,Nou Barris,8031,"Kindergarten, Primary & Secondary School",430813.1164938779,4586802.891921073,41.4298120042124,2.171942057155249,General School (with kindergarten)
223,Escola Marta Mata,C Casals i Cuberó,241.0,51,Verdun,8,Nou Barris,8042,Kindergarten & Primary School,431215.10730619705,4588201.9843733,41.44244762796052,2.176593525490849,Kindergarten & Primary School
224,Escola Baró de Viver,Carrer de Tucumán,1.0,58,Baró de Viver,9,Sant Andreu,8030,Kindergarten & Primary School,433186.1461159915,4588536.995505357,41.44563141015522,2.200149035995936,Kindergarten & Primary School
225,Centre Educatiu Mireia,C Ausiàs Marc,62.0,5,el Fort Pienc,2,Eixample,8010,"Kindergarten, Primary & Secondary School",431342.9521729263,4582773.323317132,41.39356449302054,2.178739970597406,General School (with kindergarten)
226,Centre Educatiu FEP Bon Pastor,C Sant Adrià,134.0,59,el Bon Pastor,9,Sant Andreu,8030,"Kindergarten, Primary & Secondary School",433530.243993348,4587444.597213557,41.4358210969372,2.2043881481899392,General School (with kindergarten)
227,Centre Educatiu Camí,C Vèlia,28.0,44,Vilapicina i la Torre Llobeta,8,Nou Barris,8016,Primary & Secondary School,431565.17520006537,4586773.209363235,41.42960909260782,2.18094548702929,General School
228,Escola Carlit,C Roger de Flor,162.0,7,la Dreta de l'Eixample,2,Eixample,8013,Kindergarten & Primary School,431011.58030533046,4583202.660061364,41.39740303522081,2.174727656268046,Kindergarten & Primary School
229,Escola Universitària d'Enginyeria Tècnica de Telecomunicació La Salle - URL,Pg Bonanova,8.0,25,Sant Gervasi - la Bonanova,5,Sarrià-Sant Gervasi,8022,University,427490.32430290646,4584218.240419642,41.40624012732789,2.132487589410652,University
230,Escola Ferrer i Guàrdia,C Pedraforca,5.0,55,Ciutat Meridiana,8,Nou Barris,8033,Kindergarten & Primary School,431086.0401272317,4590309.851823612,41.46142126589523,2.1748080816690414,Kindergarten & Primary School
231,Escola Jaume I,C Melcior de Palau,134.0,18,Sants,3,Sants-Montjuïc,8014,Kindergarten & Primary School,427933.3356065145,4581383.8611659445,41.38075184493496,2.138124523946372,Kindergarten & Primary School
232,Centre Educatiu Jesús i Maria *Passeig Sant Gervasi,Pg Sant Gervasi,15.0,25,Sant Gervasi - la Bonanova,5,Sarrià-Sant Gervasi,8022,"Kindergarten, Primary & Secondary School",427463.5954814592,4584594.526744753,41.40962676260745,2.1321227367298,General School (with kindergarten)
233,Escola Joan Miró,C Diputació,21.0,9,la Nova Esquerra de l'Eixample,2,Eixample,8015,Kindergarten & Primary School,429008.0472128101,4581122.541943941,41.378493776815,2.1510066981241054,Kindergarten & Primary School
234,Centre Educatiu L'Horitzó,Pg Bonanova,7.0,25,Sant Gervasi - la Bonanova,5,Sarrià-Sant Gervasi,8022,"Kindergarten, Primary & Secondary School",427504.1381723792,4584201.244588338,41.40608829911722,2.1326548774425214,General School (with kindergarten)
235,Escola Rius i Taulet,Plaça de Lesseps,19.0,28,Vallcarca i els Penitents,6,Gràcia,8023,Kindergarten & Primary School,428989.0917075234,4584390.326059583,41.40792382701724,2.150396876575529,Kindergarten & Primary School
236,Centre Educatiu IFPS Roger de Llúria,Carrer de Sardenya,68.0,66,el Parc i la Llacuna del Poblenou,10,Sant Martí,8005,FP,432196.14742517006,4582564.32789018,41.39175451472616,2.188968109310081,FP
237,Centre Educatiu Sil,Av Tibidabo,26.0,25,Sant Gervasi - la Bonanova,5,Sarrià-Sant Gervasi,8022,"Kindergarten, Primary & Secondary School",427735.6737629143,4584947.975356909,41.4128346281528,2.135335506245646,General School (with kindergarten)
238,Centre Educatiu Sagrado Corazón *Eduardo Conde,C Eduardo Conde,17.0,23,Sarrià,5,Sarrià-Sant Gervasi,8034,"Kindergarten, Primary & Secondary School",426530.36094694806,4582757.11846379,41.39299329781557,2.121181097169087,General School (with kindergarten)
239,Institut de Recerca Biomèdica,Carrer de Baldiri Reixac,10.0,20,la Maternitat i Sant Ramon,4,Les Corts,8028,University,426121.629,4581523.559,41.38184573119936,2.116442974830661,University
240,Seminari Interdisciplinar 'Mujeres y Sociedad',C Montalegre,6.0,1,el Raval,1,Ciutat Vella,8001,University,430379.0357577841,4581724.135357528,41.38403193047776,2.167331566974877,University
241,IBP Formació Professional,Carrer de Provença,148.0,8,l'Antiga Esquerra de l'Eixample,2,Eixample,8036,FP,429114.629,4582130.368,41.38758030951558,2.1521632756748805,FP
242,Escola Doctor Ferran i Clua,C Manigua,25.0,62,el Congrés i els Indians,9,Sant Andreu,8027,Kindergarten & Primary School,431433.3126062324,4586153.329377242,41.42401480894652,2.179437759725011,Kindergarten & Primary School
243,Escola Drassanes,C Nou de Sant Francesc,11.0,2,el Barri Gòtic,1,Ciutat Vella,8002,Kindergarten & Primary School,431206.0788310383,4581169.566939389,41.37910824062923,2.177284995740368,Kindergarten & Primary School
244,Escola els Pins,Pg Vall d'Hebron,181.0,40,Montbau,7,Horta-Guinardó,8035,Kindergarten & Primary School,428749.24038276897,4587483.286863798,41.435759593982205,2.147163094335721,Kindergarten & Primary School
245,Escola Emili Juncadella,C Juan de Garay,12.0,63,Navas,9,Sant Andreu,8041,Kindergarten & Primary School,431593.2581876378,4585492.724848449,41.41807860569787,2.1814264205076483,Kindergarten & Primary School
246,Escola Bac de Roda,C Huelva,33.0,72,Sant Martí de Provençals,10,Sant Martí,8020,Kindergarten & Primary School,432650.2099730997,4585248.291443315,41.41596635435773,2.194100196799017,Kindergarten & Primary School
247,Centre Educatiu Escola Pia Balmes,C Balmes,208.0,26,Sant Gervasi - Galvany,5,Sarrià-Sant Gervasi,8006,"Kindergarten, Primary & Secondary School",429102.0528465646,4583268.609023109,41.39783092155686,2.1518796261106825,General School (with kindergarten)
248,Escola Pia de Sarrià-Calassanç,C Immaculada,25.0,25,Sant Gervasi - la Bonanova,5,Sarrià-Sant Gervasi,8017,"Kindergarten, Primary & Secondary School",426815.7768412612,4584283.500637969,41.40676676957799,2.1244102505399765,General School (with kindergarten)
249,Facultat de Dret  ESADE - URL,C Marquès de Mulhacén,40.0,21,Pedralbes,4,Les Corts,8034,University,425999.37006678846,4582941.202552147,41.39460257715366,2.1148077954176467,University
250,Institut Nacional d'Educació Física de Catalunya *Barcelona,Av Estadi,12.0,11,el Poble-sec,3,Sants-Montjuïc,8038,University,428651.4229885859,4579669.43805554,41.36537462912623,2.146913285556539,University
251,Institut de Recerca CEPBA-IBM,Jordi Girona,1.0,21,Pedralbes,4,Les Corts,8034,University,425980.2854158732,4582197.376805042,41.38790151896208,2.1146704334958524,University
252,Institut Francisco de Goya,C Garriga i Roca,21.0,35,el Guinardó,7,Horta-Guinardó,8032,Secondary School,430582.18091081607,4585952.279163148,41.42213093143702,2.169276061235553,High School
253,Facultat d'Economia i Empresa - UB,Av Diagonal,690.0,21,Pedralbes,4,Les Corts,8034,University,426002.6552524405,4581951.840205859,41.38569213816947,2.114967953157307,University
254,Universitat Oberta de Catalunya,Av Tibidabo,39.0,25,Sant Gervasi - la Bonanova,5,Sarrià-Sant Gervasi,8035,University,427544.9715619938,4585194.165916006,41.41503478757256,2.1330244628789514,University
255,Escola La Pau,Carrer d'Extremadura,15.0,73,la Verneda i la Pau,10,Sant Martí,8020,Kindergarten & Primary School,433948.8681850279,4586148.204927614,41.42417941545302,2.209540076522833,Kindergarten & Primary School
256,Centre de Formació Professional Pejoan,C Rosselló,303.0,7,la Dreta de l'Eixample,2,Eixample,8037,FP,430178.3303624731,4583393.889025028,41.39905344965265,2.1647388815799173,FP
257,Escola Santiago Rusiñol,Pg Valldaura,261.0,52,la Prosperitat,8,Nou Barris,8016,Kindergarten & Primary School,431590.1927264253,4587909.380299344,41.4398443007178,2.1811162682851,Kindergarten & Primary School
258,Escola Turó Blau,C Gran de Sant Andreu,2.0,60,Sant Andreu,9,Sant Andreu,8030,Kindergarten & Primary School,432419.3489446973,4586595.039271057,41.428076696210304,2.191187503130866,Kindergarten & Primary School
259,Escola Tibidabo,C Joaquim Valls,10.0,52,la Prosperitat,8,Nou Barris,8016,Kindergarten & Primary School,431744.82716527424,4588208.894413243,41.442555073166815,2.1829332651530327,Kindergarten & Primary School
260,Centre Educatiu Vedruna Àngels Barcelona,Pl Àngels,3.0,1,el Raval,1,Ciutat Vella,8001,"Kindergarten, Primary & Secondary School",430416.3994153701,4581623.478347557,41.38312857706076,2.1677899514729404,General School (with kindergarten)
261,Institut Angeleta Ferrer,C Marina,193.0,5,el Fort Pienc,2,Eixample,8013,Secondary School,431384.0676182589,4583533.943905735,41.4004186757127,2.1791455422355464,High School
262,Centre Educatiu FEDAC-Horta,C Campoamor,49.0,43,Horta,7,Horta-Guinardó,8031,"Kindergarten, Primary & Secondary School",429419.29491041385,4587339.656403473,41.43452514687176,2.1551992543615426,General School (with kindergarten)
263,Institut Tècniques Energètiques,Av Diagonal,647.0,20,la Maternitat i Sant Ramon,4,Les Corts,8028,University,426031.4440081472,4581790.127790231,41.38423831335687,2.115331979222668,University
264,Consell Superior d'Investigacions Científiques,Egipcíaques,15.0,1,el Raval,1,Ciutat Vella,8001,University,430506.5705898092,4581376.2447790485,41.38090961484458,2.168896630424564,University
265,Escola Tècnica Superior d'Enginyeria de Telecomunicació - UPC,C Jordi Girona,1.0,21,Pedralbes,4,Les Corts,8034,University,425792.92125052185,4582136.251360408,41.38733372682784,2.112437167186739,University
266,Institut les Corts,Trav Corts,131.0,20,la Maternitat i Sant Ramon,4,Les Corts,8028,Secondary School,426941.4892336728,4581457.498234352,41.38132561415536,2.126255053704741,High School
267,Escola Superior de Disseny Campusnet,Travessera de les Corts,323.0,19,les Corts,4,Les Corts,8029,FP,427941.85396853,4582269.22284126,41.38872671890697,2.1381210907130104,FP
268,Escola Ferran Sunyer,C Viladomat,2.0,10,Sant Antoni,2,Eixample,8015,Kindergarten & Primary School,430024.0673948785,4580828.679024282,41.37593604478161,2.1631899655131503,Kindergarten & Primary School
269,Institut Verdaguer,Pas Institut Escola,1.0,4,"Sant Pere, Santa Caterina i la Ribera",1,Ciutat Vella,8003,Secondary School,432018.60074668005,4582080.237216116,41.38737945873459,2.186898929399237,High School
270,Institut Joan d'Àustria,C Selva de Mar,211.0,72,Sant Martí de Provençals,10,Sant Martí,8020,Secondary School & FP,433050.3380889396,4585240.485598836,41.41592948460128,2.198888496942657,High School
271,Centre Educatiu  English School Barcelona,C Montornès,37.0,28,Vallcarca i els Penitents,6,Gràcia,8023,"Kindergarten, Primary & Secondary School",428380.872360297,4585589.77023765,41.4186727574625,2.1429786867442,General School (with kindergarten)
272,Centre Educatiu Mare de Déu del Coll,C Santuari,28.0,29,el Coll,6,Gràcia,8032,"Kindergarten, Primary & Secondary School",429062.0347127916,4585748.435834621,41.42016221739847,2.1511102583797514,General School (with kindergarten)
273,Escola Amalgama,C Major de Sarrià,47.0,23,Sarrià,5,Sarrià-Sant Gervasi,8017,Music School,426707.62111710256,4583249.207701861,41.39744150357215,2.1232416262916383,Music School
274,Centre de Política de Sòl i Valoracions,Av Diagonal,649.0,20,la Maternitat i Sant Ramon,4,Les Corts,8028,University,425867.5135968504,4581812.314537811,41.38442305045343,2.113368872832767,University
275,Conservatori Municipal de Música de Barcelona,C Bruc,110.0,7,la Dreta de l'Eixample,2,Eixample,8009,Music School,430450.6797890641,4583041.1785217095,41.39590030798757,2.1680371208078077,Music School
276,Escola Pere IV,Carrer de Bilbao,103.0,68,el Poblenou,10,Sant Martí,8005,Kindergarten & Primary School,433169.0061775132,4584026.72945701,41.40500740562774,2.200442388310342,Kindergarten & Primary School
277,Escola L'Arenal de Llevant,C Bac de Roda,33.0,68,el Poblenou,10,Sant Martí,8005,Kindergarten & Primary School,433903.4020888814,4583793.012880681,41.40296309686819,2.209253322608713,Kindergarten & Primary School
278,Escola de Música Tarantel·la,C Violant Hongria Rna Aragó,174.0,18,Sants,3,Sants-Montjuïc,8014,Music School,427720.3576771135,4581384.168117479,41.38073550514029,2.135577672628968,Music School
279,Centre Educatiu Solc,C Ardena,36.0,21,Pedralbes,4,Les Corts,8034,"Kindergarten, Primary & Secondary School",425310.8238707536,4582432.694361777,41.38995903223211,2.106635102306285,General School (with kindergarten)
280,Facultat de Turisme i Direcció Hotelera  Sant Ignasi - URL,C Marquès de Mulhacén,40.0,21,Pedralbes,4,Les Corts,8034,University,425999.37006678846,4582941.202552147,41.39460257715366,2.1148077954176467,University
281,Escola Superior de Relacions Públiques,Carrer de Sepúlveda,50.0,10,Sant Antoni,2,Eixample,8015,University,429331.403,4580990.308,41.377331253656905,2.154888726076305,University
282,Institut Químic de Sarrià - Campus Sarrià - IQS,Via Augusta,390.0,23,Sarrià,5,Sarrià-Sant Gervasi,8017,University,426398.7099637597,4583957.872722917,41.40379591152728,2.1194605457742592,University
283,Centre Educatiu Mare del Diví Pastor,C Bailèn,38.0,7,la Dreta de l'Eixample,2,Eixample,8010,"Kindergarten, Primary & Secondary School",431066.2868608239,4582777.5312197935,41.39357872583796,2.175430412133301,General School (with kindergarten)
284,Escola Mas Casanovas,C Mas Casanovas,55.0,33,el Baix Guinardó,7,Horta-Guinardó,8025,Kindergarten & Primary School,430704.3479218832,4584994.316526306,41.4135134548639,2.1708476352880903,Kindergarten & Primary School
285,Centre Educatiu Miró,C Cristóbal de Moura,153.0,71,Provençals del Poblenou,10,Sant Martí,8019,Kindergarten & Primary School,433899.8019001776,4584932.02877307,41.41322161949374,2.209085844710352,Kindergarten & Primary School
286,Facultat d'Educació - UB,Pg Vall d'Hebron,171.0,40,Montbau,7,Horta-Guinardó,8035,University,428583.9859946296,4587444.744204442,41.4353977782998,2.1451898455955827,University
287,Institut Moisès Broggi,Carrer de Sant Quintí,32.0,64,el Camp de l'Arpa del Clot,10,Sant Martí,8041,Secondary School & FP,431329.323,4584978.125,41.413421268120864,2.178326828046783,High School
288,Centre Educatiu Amor de Dios,Carrer del Teide,27.0,46,el Turó de la Peira,8,Nou Barris,8031,"Kindergarten, Primary & Secondary School",430432.72,4587034.875,41.43186852879052,2.1673630725929494,General School (with kindergarten)
289,Institut d'Economia de Barcelona,C Tinent Coronel Valenzuela,1.0,21,Pedralbes,4,Les Corts,8034,University,426094.38332964433,4582093.594842675,41.386977291918406,2.116047632518847,University
290,Centre Educatiu Cintra,C Riereta,21.0,1,el Raval,1,Ciutat Vella,8001,Secondary School,430473.7229729715,4581067.543785404,41.37812640198185,2.168539245437845,High School
291,Programa Dona,Jordi Girona,31.0,21,Pedralbes,4,Les Corts,8034,University,426216.309085875,4582360.912260973,41.38939609467136,2.1174732071947022,University
292,Institut Montjuïc,C Cisell,19.0,13,la Marina de Port,3,Sants-Montjuïc,8038,Secondary School,428499.8866960568,4578571.699744943,41.35547421887749,2.1452310044894904,High School
293,Centre d'Estudis Universitat dels Pacients,C Sant Antoni Maria Claret,171.0,35,el Guinardó,7,Horta-Guinardó,8025,University,431113.7429716268,4584868.611835484,41.41241647123583,2.1757600481895056,University
294,Centre d'Estudis Musicals A Tempo,C Lluçà,56.0,19,les Corts,4,Les Corts,8028,Music School,427290.7527919259,4581670.993226055,41.38328011658352,2.1304059992162108,Music School
295,Facultat de Filologia i Comunicació - UB,G.V. Corts Catalanes,585.0,8,l'Antiga Esquerra de l'Eixample,2,Eixample,8007,University,430105.756355228,4582009.3515178105,41.38657708352391,2.164030568391206,University
296,Facultat de Matemàtiques i Informàtica - UB,G.V. Corts Catalanes,585.0,8,l'Antiga Esquerra de l'Eixample,2,Eixample,8007,University,430105.756355228,4582009.3515178105,41.38657708352391,2.164030568391206,University
297,Facultat de Geografia i Història - UB,C Montalegre,6.0,1,el Raval,1,Ciutat Vella,8001,University,430379.0357577841,4581724.135357528,41.38403193047776,2.167331566974877,University
298,Facultat de Belles Arts - UB,C Pau Gargallo,4.0,20,la Maternitat i Sant Ramon,4,Les Corts,8028,University,425917.3361444057,4581667.514961816,41.38312349424735,2.1139823906208206,University
299,Institut XXV Olimpíada,C Dàlia,2.0,14,la Font de la Guatlla,3,Sants-Montjuïc,8004,Secondary School,428817.27926421183,4580193.89096954,41.37011288396194,2.148834590166746,High School
300,SMOS Barcelona Expert Centre,Passeig Marítim de la Barceloneta - Oriol Bohigas,37.0,3,la Barceloneta,1,Ciutat Vella,8003,University,432785.0033372476,4581877.834344472,41.38562087271976,2.1960871806342315,University
301,Escola La Maquinista,Carrer de Ferran Junoy,14.0,59,el Bon Pastor,9,Sant Andreu,8030,Kindergarten & Primary School,432816.05022608,4587805.47747816,41.4390119909961,2.195800264029226,Kindergarten & Primary School
302,Laboratori d'Enginyeria Marítima,C Jordi Girona,1.0,21,Pedralbes,4,Les Corts,8034,University,426075.4434569442,4582352.122315965,41.38930399355781,2.115789578332347,University
303,Institut Escola Turó de  Roquetes,C Alcántara,22.0,50,les Roquetes,8,Nou Barris,8042,"Kindergarten, Primary & Secondary School",430905.4932178593,4588651.987927624,41.44647404453238,2.1728361106817555,General School (with kindergarten)
304,Centre Educatiu Jesuïtes Sarrià - Sant Ignasi,C Carrasco i Formiguera,32.0,23,Sarrià,5,Sarrià-Sant Gervasi,8017,"Kindergarten, Primary, Secondary School & FP",426569.13532868464,4583863.631679042,41.40296270967555,2.121510655906228,General School (with kindergarten)
305,Institut d'Educació Secundària i Artística,Pl Margarida Xirgu,6.0,11,el Poble-sec,3,Sants-Montjuïc,8004,Secondary School,429546.9391389935,4580330.049793043,41.37140342180358,2.157542746806441,High School
306,Centre Educatiu Santapau-Pifma,C Alella,51.0,45,Porta,8,Nou Barris,8016,FP,431215.5085513367,4586982.714250985,41.431466157998415,2.1767371149458734,FP
307,Facultat de Física - UB,Av Diagonal,647.0,20,la Maternitat i Sant Ramon,4,Les Corts,8028,University,426025.30305167846,4581863.652071393,41.38489994951897,2.115249564660417,University
308,Càtedra Gaudí - ETSAB - UPC,Av Diagonal,649.0,20,la Maternitat i Sant Ramon,4,Les Corts,8028,University,425867.6635953816,4581812.363537365,41.384423505592665,2.113370660627247,University
309,Escola Eulàlia Bota,C Fernando Pessoa,59.0,60,Sant Andreu,9,Sant Andreu,8000,Kindergarten & Primary School,432552.3792854319,4588432.064401584,41.44463333487745,2.192574438289911,Kindergarten & Primary School
310,Fundació Barcelona Media - Centre d'Innovació,Av Diagonal,177.0,66,el Parc i la Llacuna del Poblenou,10,Sant Martí,8018,University,432602.2816950243,4583967.32792386,41.404425080209855,2.1936694239353693,University
311,Centre Educatiu Peter Pan,C Immaculada,4.0,23,Sarrià,5,Sarrià-Sant Gervasi,8017,Kindergarten & Primary School,426569.7662698657,4584105.132324016,41.40513785348436,2.121488906041987,Kindergarten & Primary School
312,Institut d'Estudis Territorials,Pg Circumval.lació,8.0,4,"Sant Pere, Santa Caterina i la Ribera",1,Ciutat Vella,8003,University,431920.3957538529,4581820.449731488,41.38503131976485,2.185753641665234,University
313,Centre Educatiu La Salle Barceloneta,C Balboa,18.0,3,la Barceloneta,1,Ciutat Vella,8003,FP,432214.0199633547,4581503.207886556,41.3821988018784,2.1893006019115258,FP
314,Centre Educatiu La Salle Horta,C Doctor Letamendi,63.0,43,Horta,7,Horta-Guinardó,8031,"Kindergarten, Primary & Secondary School",429903.07916995743,4587557.843378465,41.43653263980817,2.1609639013656685,General School (with kindergarten)
315,Centre Educatiu López Vicuña,C Consell de Cent,397.0,7,la Dreta de l'Eixample,2,Eixample,8009,FP,430659.9087792814,4582927.482673821,41.39489435492012,2.1705527267250275,FP
316,Centre Educatiu Escola Pia - Luz Casanova,C Almansa,52.0,51,Verdun,8,Nou Barris,8042,"Kindergarten, Primary & Secondary School",431103.6563714239,4588280.722583751,41.44314723594106,2.175250527458289,General School (with kindergarten)
317,School of Management - IQS,Via Augusta,390.0,23,Sarrià,5,Sarrià-Sant Gervasi,8017,University,426398.7099637597,4583957.872722917,41.40379591152728,2.1194605457742592,University
318,Centre Educatiu Montserrat *Av. Vallvidrera,Av Vallvidrera,68.0,23,Sarrià,5,Sarrià-Sant Gervasi,8017,"Kindergarten, Primary & Secondary School",425670.7918958128,4584589.38140568,41.409416632994734,2.1106754383686037,General School (with kindergarten)
319,Institut Pau Claris,Pg Lluís Companys,18.0,4,"Sant Pere, Santa Caterina i la Ribera",1,Ciutat Vella,8018,Secondary School,431558.5161299214,4582517.928852556,41.39128260500432,2.18134710585921,High School
320,Escola Pit-Roig,C Aguilar,4.0,36,la Font d'en Fargues,7,Horta-Guinardó,8032,Kindergarten & Primary School,430675.3819730466,4586111.972625851,41.42357727859375,2.1703729800114075,Kindergarten & Primary School
321,Institut Poblenou,C Doctor Trueta,206.0,68,el Poblenou,10,Sant Martí,8005,FP,433402.1980587957,4583285.386733631,41.39834967946906,2.2033135649478446,FP
322,Escola de Música Marshall,Carrer de Saragossa,27.0,27,el Putxet i el Farró,5,Sarrià-Sant Gervasi,8006,Music School,428949.463,4583670.505,41.401437177199085,2.150007289734474,Music School
323,Centre Educatiu Thuya,Sant Gervasi de Cassoles,68.0,25,Sant Gervasi - la Bonanova,5,Sarrià-Sant Gervasi,8022,FP,427852.2307999968,4584159.211072672,41.40574103739798,2.136824035870799,FP
324,Institut Salvador Espriu,Pl Glòries Catalanes,20.0,65,el Clot,10,Sant Martí,8018,Secondary School,432126.262292938,4584099.202542593,41.40557278654692,2.1879601974840224,High School
325,Facultat de Ciències de la Salut Blanquerna - URL,C Padilla,326.0,33,el Baix Guinardó,7,Horta-Guinardó,8025,University,430806.6030140592,4584579.538591303,41.409786505203634,2.1721184721407334,University
326,Institut Universitari Cultura,C Ramon Trias Fargas,25.0,67,la Vila Olímpica del Poblenou,10,Sant Martí,8005,University,432362.0263673597,4582284.352293278,41.38924681822701,2.190983335170805,University
327,Escola Mercè Rodoreda,Carrer del Vesuvi,35.0,52,la Prosperitat,8,Nou Barris,8016,Kindergarten & Primary School,431981.466795465,4588574.595899239,41.445868894480135,2.1857245692364806,Kindergarten & Primary School
328,Escola Milà i Fontanals,C Àngels,1.0,1,el Raval,1,Ciutat Vella,8001,Kindergarten & Primary School,430450.0451105983,4581515.479408505,41.38215877369944,2.168204704594222,Kindergarten & Primary School
329,Escola de Mitjans Audiovisuals,G.V. Corts Catalanes,173.0,16,la Bordeta,3,Sants-Montjuïc,8014,FP,427950.8907500344,4579916.938490126,41.36754138527626,2.138508797833273,FP
330,Escola Nabí,Carrer d'Elisa Moragas i Badia,38.0,22,"Vallvidrera, el Tibidabo i les Planes",5,Sarrià-Sant Gervasi,8017,Kindergarten & Primary School,424936.1428653281,4585333.727986628,41.41605230629501,2.1017942870735373,Kindergarten & Primary School
331,Escola La Mar Bella,Pl Sant Bernat Calbó,2.0,68,el Poblenou,10,Sant Martí,8005,Kindergarten & Primary School,433517.6519066886,4583438.45626326,41.39973789141123,2.2046777632789207,Kindergarten & Primary School
332,Escola Pegaso,C Dublín,5.0,61,la Sagrera,9,Sant Andreu,8027,Kindergarten & Primary School,432079.7692438506,4586581.139338513,41.42792286266486,2.1871253300366518,Kindergarten & Primary School
333,Centre Educatiu Adela de Trenquelleón,Rbla Guipúscoa,24.0,72,Sant Martí de Provençals,10,Sant Martí,8018,"Kindergarten, Primary & Secondary School",432698.540549057,4585021.688662078,41.413929461064,2.1947036696130047,General School (with kindergarten)
334,Àrea Informació,Jordi Girona,1.0,21,Pedralbes,4,Les Corts,8034,University,425980.2854158732,4582197.376805042,41.38790151896208,2.1146704334958524,University
335,Escola Àngels Garriga,C Gallecs,22.0,36,la Font d'en Fargues,7,Horta-Guinardó,8032,Kindergarten & Primary School,430454.892058139,4586380.842960306,41.42597983517579,2.167703658288384,Kindergarten & Primary School
336,Centre Educatiu Acis - Artur Martorell,Pl Can Baró,3.0,34,Can Baró,7,Horta-Guinardó,8024,"Kindergarten, Primary & Secondary School",429976.182921808,4585339.884007492,41.41656273573594,2.1620957170113524,General School (with kindergarten)
337,Escola Pere Vila,Pg Lluís Companys,18.0,4,"Sant Pere, Santa Caterina i la Ribera",1,Ciutat Vella,8018,Kindergarten & Primary School,431558.5161299214,4582517.928852556,41.39128260500432,2.18134710585921,Kindergarten & Primary School
338,Escola Pau Romeva,Carrer del Pisuerga,1.0,20,la Maternitat i Sant Ramon,4,Les Corts,8028,Kindergarten & Primary School,425867.7937933274,4580908.32136087,41.37628120603343,2.1134828061272373,Kindergarten & Primary School
339,Fundació Privada Clínic per la Recerca Biomèdica,C Villarroel,170.0,8,l'Antiga Esquerra de l'Eixample,2,Eixample,8036,University,429084.0732241549,4582305.910411306,41.389158663694246,2.1517772961900903,University
340,Centre Tecnològic de Telecomunicacions Mòbils,C Gran Capità,2.0,21,Pedralbes,4,Les Corts,8034,University,425684.8843010172,4582134.602352766,41.38730890128584,2.111145329424392,University
341,Institut d'Estudis Hispànics,G.V. Corts Catalanes,585.0,8,l'Antiga Esquerra de l'Eixample,2,Eixample,8007,University,430105.756355228,4582009.3515178105,41.38657708352391,2.164030568391206,University
342,Escola Fort Pienc,C Alí Bei,75.0,5,el Fort Pienc,2,Eixample,8013,Kindergarten & Primary School,431658.6010693015,4582950.58865172,41.39518795392121,2.1824953167364085,Kindergarten & Primary School
343,Centre de Recerca en Salut Internacional de Barcelona,C Rosselló,132.0,8,l'Antiga Esquerra de l'Eixample,2,Eixample,8036,University,429211.3299647474,4582412.872394328,41.39013324147976,2.1532867495245505,University
344,Centre d'Estudis Canadencs Universitat  de Barcelona,Av Diagonal,684.0,21,Pedralbes,4,Les Corts,8034,University,426516.8722175164,4582118.434692386,41.38723971871468,2.1210972500110508,University
345,Centre Educatiu Jesuïtes del Clot,C València,680.0,65,el Clot,10,Sant Martí,8027,"Kindergarten, Primary, Secondary School & FP",432363.55381968745,4584935.60743451,41.41312603124579,2.1907053886762484,General School (with kindergarten)
346,Escola Antoni Brusi,Carrer de Sardenya,33.0,67,la Vila Olímpica del Poblenou,10,Sant Martí,8005,Kindergarten & Primary School,432243.5404789001,4582483.674324733,41.39103208450983,2.189543966805976,Kindergarten & Primary School
347,Institut Josep Pla,C Vall d'Ordesa,24.0,46,el Turó de la Peira,8,Nou Barris,8031,Secondary School,430179.813595876,4587020.532670391,41.43171740723793,2.164338051403876,High School
348,Centre Internacional de  Mètodes Numèrics en Enginyeria,Carrer del Gran Capità,1.0,21,Pedralbes,4,Les Corts,8034,University,425619.5299676143,4581992.810721985,41.386025808317086,2.1103811501410736,University
349,Escola Parc del Guinardó,C Garriga i Roca,13.0,35,el Guinardó,7,Horta-Guinardó,8041,Kindergarten & Primary School,430682.7939809532,4585724.059408192,41.42008412690289,2.17050613591235,Kindergarten & Primary School
350,Escola Cal Maiol,C Sagunt,92.0,18,Sants,3,Sants-Montjuïc,8014,Kindergarten & Primary School,427756.9835112997,4580498.143774105,41.37275870841211,2.136121251833447,Kindergarten & Primary School
351,Institut Escola Antaviana,Carrer dels Nou Barris,12.0,50,les Roquetes,8,Nou Barris,8042,"Kindergarten, Primary & Secondary School",431388.787491684,4588837.277221564,41.44818432585492,2.1786002392699624,General School (with kindergarten)
352,Institut La Guineueta,C Artesania,53.0,48,la Guineueta,8,Nou Barris,8042,Secondary School & FP,430839.90093890217,4588239.3249331545,41.44275170606566,2.1720981995542705,High School
353,Centre d'Estudis d'Art Contemporani,Av Miramar,1.0,11,el Poble-sec,3,Sants-Montjuïc,8038,University,429761.5751240866,4579982.539230728,41.368292261821246,2.1601492925476364,University
354,Institut Montserrat Roig,Carrer de Pau Alsina,15.0,32,el Camp d'en Grassot i Gràcia Nova,6,Gràcia,8025,Secondary School,430218.7761990801,4584320.13133197,41.40739929927398,2.1651158990356314,High School
355,Menjadors Universitàris,C Adolf Florensa,1.0,20,la Maternitat i Sant Ramon,4,Les Corts,8028,University,426010.8792560031,4581572.125913229,41.38227297506455,2.115112671672215,University
356,Institut Manuel Carrasco i Formiguera,C Santa Fe,2.0,44,Vilapicina i la Torre Llobeta,8,Nou Barris,8031,Secondary School,430964.6550967053,4586443.2664563805,41.42658603011807,2.1737966206194,High School
357,Facultat de Traducció i Interpretació - UPF,C Roc Boronat,138.0,66,el Parc i la Llacuna del Poblenou,10,Sant Martí,8018,University,432574.3789791466,4583902.194553516,41.40383610308015,2.1933428895948404,University
358,Universitat Pompeu Fabra,Carrer de la Mercè,12.0,2,el Barri Gòtic,1,Ciutat Vella,8002,University,431401.303,4581173.312,41.379158638700645,2.1796190518636545,University
359,Escola Ciutat Comtal,C Pujalt,6.0,56,Vallbona,8,Nou Barris,8033,Kindergarten & Primary School,431753.7986195046,4590473.202368945,41.46294957595788,2.1827847217571863,Kindergarten & Primary School
360,Centre Educatiu Claret,C Sant Antoni Maria Claret,49.0,32,el Camp d'en Grassot i Gràcia Nova,6,Gràcia,8025,"Kindergarten, Primary & Secondary School",430340.7706259227,4584158.169604532,41.405951148357936,2.166593971349565,General School (with kindergarten)
361,Observatori de Bioètica i Dret,Av Diagonal,684.0,21,Pedralbes,4,Les Corts,8034,University,426516.8682175556,4582118.433692398,41.38723970934282,2.1210972022957915,University
362,Institut Escola d'Hoteleria i Turisme de Barcelona,C Pintor Alsamora,3.0,45,Porta,8,Nou Barris,8016,FP,431565.2841055805,4587232.926884073,41.43374961175949,2.180894741672587,FP
363,Facultat de Dret - UPF,Ramon Trias Fargas,25.0,67,la Vila Olímpica del Poblenou,10,Sant Martí,8005,University,432362.0263673597,4582284.352293278,41.38924681822701,2.190983335170805,University
364,Escola Universitària de Turisme Ostelea,C Aragó,28.0,9,la Nova Esquerra de l'Eixample,2,Eixample,8015,University,428905.9781541798,4581364.226563532,41.380661533845256,2.149757830499899,University
365,Unitat Docent Hospital Universitari de la Vall d'Hebron,C Natzaret,86.0,40,Montbau,7,Horta-Guinardó,8035,University,428039.08844073984,4586704.553300689,41.42868257584527,2.138756551103979,University
366,Serveis Científicotècnics,C Josep Samitier,1.0,20,la Maternitat i Sant Ramon,4,Les Corts,8028,University,425962.9487126691,4581614.409490075,41.382649395415946,2.1145343363203266,University
367,Institut Vila de Gràcia,C Riera de Sant Miquel,58.0,31,la Vila de Gràcia,6,Gràcia,8006,Secondary School,429394.5069874682,4583351.299277712,41.3986014146248,2.155368115677565,High School
368,Servei de Recerca,Pl Mercè,9999.0,2,el Barri Gòtic,1,Ciutat Vella,8002,University,431391.8480244605,4581171.046962697,41.37913743201389,2.1795062460893457,University
369,Universitat de Barcelona Trampolí Tecnològic,C Baldiri Reixac,4.0,20,la Maternitat i Sant Ramon,4,Les Corts,8028,University,426122.9891761777,4581526.199385967,41.38186963690709,2.116458918258774,University
370,Aules de Formació Permanent per a la Gent Gran de Barcelona,C Casanova,36.0,10,Sant Antoni,2,Eixample,8011,University,429879.0756265079,4581684.085645053,41.38362779436018,2.161357278865766,University
371,Centre Educatiu Pàlcam,Carrer de Rosalía de Castro,32.0,33,el Baix Guinardó,7,Horta-Guinardó,8025,"Kindergarten, Primary, Secondary School & FP",430767.8853603499,4584724.312171787,41.411087096447794,2.171638707346255,General School (with kindergarten)
372,Escola Pau Casals,Av Cardenal Vidal Barraquer,46.0,41,la Vall d'Hebron,7,Horta-Guinardó,8035,Kindergarten & Primary School,429122.63385083736,4587048.007182912,41.4318722602892,2.15168300702906,Kindergarten & Primary School
373,Escola Pare Poveda,Av Vallcarca,220.0,28,Vallcarca i els Penitents,6,Gràcia,8023,Kindergarten & Primary School,428284.4923371459,4585397.294093442,41.41693061120518,2.1418483119179204,Kindergarten & Primary School
374,Escola Arc Iris,C Arc de Sant Martí,78.0,36,la Font d'en Fargues,7,Horta-Guinardó,8032,Kindergarten & Primary School,430767.0970441454,4586299.1278206725,41.42527082492769,2.171449020831429,Kindergarten & Primary School
375,Centre Educatiu Mare de Déu dels Àngels,C Sagrera,68.0,61,la Sagrera,9,Sant Andreu,8027,"Kindergarten, Primary & Secondary School",432421.4680399891,4586017.774897185,41.42287764355707,2.1912773816109894,General School (with kindergarten)
376,Escola Montseny *Torrent del Remei,C Torrent del Remei,2.0,28,Vallcarca i els Penitents,6,Gràcia,8023,Kindergarten & Primary School,428816.3692043749,4585245.75568302,41.41561305868736,2.148229934277885,Kindergarten & Primary School
377,Escola Mossèn Jacint Verdaguer,C Lleida,32.0,11,el Poble-sec,3,Sants-Montjuïc,8004,Kindergarten & Primary School,429321.6782846101,4580545.116646332,41.37332070884572,2.154824350891146,Kindergarten & Primary School
378,Centre Educatiu Nausica,C Muntaner,309.0,26,Sant Gervasi - Galvany,5,Sarrià-Sant Gervasi,8021,Kindergarten & Primary School,428566.70706545137,4583188.544691436,41.39706243409874,2.14548565093138,Kindergarten & Primary School
379,Centre Educatiu Jesuïtes Sant Gervasi - Infant Jesús,C Avenir,19.0,26,Sant Gervasi - Galvany,5,Sarrià-Sant Gervasi,8006,"Kindergarten, Primary & Secondary School",428875.29007043503,4583171.888918955,41.39693977486581,2.149178612436604,General School (with kindergarten)
380,UOC Seu de Barcelona,Rambla del Poblenou,156.0,71,Provençals del Poblenou,10,Sant Martí,8018,University,432669.627,4584196.369,41.40649363005068,2.19444957141162,University
381,Escola de Música i Dansa Esclat *Vila Olímpica,C Arquitecte Sert,29.0,67,la Vila Olímpica del Poblenou,10,Sant Martí,8005,Music School,432798.3440648969,4582592.13237725,41.39205548440707,2.196167481517439,Music School
382,Centre Profesional de Música Liceu,Pl Urquinaona,11.0,4,"Sant Pere, Santa Caterina i la Ribera",1,Ciutat Vella,8010,Music School,430870.0348808639,4582228.590535625,41.388617744369554,2.173145777606978,Music School
383,Escola de Música Nostra Senyora de Lurdes,Via Augusta,73.0,26,Sant Gervasi - Galvany,5,Sarrià-Sant Gervasi,8006,Music School,429011.9866629886,4583547.076288042,41.40033102467106,2.1507696680349047,Music School
384,Centre Educatiu Salesià de Sant Josep,C Rocafort,42.0,10,Sant Antoni,2,Eixample,8015,"Kindergarten, Primary & Secondary School",429424.3141907065,4581001.58621176,41.37744098695092,2.155998402994959,General School (with kindergarten)
385,Centre Educatiu Pare Manyanet,Trav Corts,331.0,19,les Corts,4,Les Corts,8029,"Kindergarten, Primary & Secondary School",427942.9083237398,4582269.622524098,41.38873041314552,2.138133652817682,General School (with kindergarten)
386,Centre Educatiu Piaget,C Llobregós,194.0,37,el Carmel,7,Horta-Guinardó,8032,"Kindergarten, Primary & Secondary School",429179.6495184345,4585997.412432579,41.4224150229954,2.1524884094613337,General School (with kindergarten)
387,Aula Escuela Europea,Av Mare de Déu de Lorda,34.0,21,Pedralbes,4,Les Corts,8034,"Kindergarten, Primary & Secondary School",425370.1560942516,4583333.766584511,41.39808006912545,2.107233656835713,General School (with kindergarten)
388,Institut de Bioenginyeria de Catalunya,C Baldiri Reixac,10.0,20,la Maternitat i Sant Ramon,4,Les Corts,8028,University,426126.9761371306,4581527.502374123,41.38188173843909,2.116506436518207,University
389,Centre de Tecnologies i Aplicacions del Llenguatge i la Parla,Jordi Girona,1.0,21,Pedralbes,4,Les Corts,8034,University,425980.2854158732,4582197.376805042,41.38790151896208,2.1146704334958524,University
390,Barcelona Supercomputing Center - Centro Nacional de Supercomputación,Plaça d'Eusebi Güell,1.0,21,Pedralbes,4,Les Corts,8034,University,426041.242,4582420.286,41.38991476928731,2.115372219417795,University
391,Escola d'Enginyeria de Barcelona Est - UPC,Avinguda d'Eduard Maristany,16.0,70,el Besòs i el Maresme,10,Sant Martí,8019,University,434982.80739594856,4584858.970695247,41.41265194774744,2.2220511148010376,University
392,Diapasó Centre Musical,Roger,17.0,17,Sants - Badal,3,Sants-Montjuïc,8028,Music School,426986.6899002936,4580968.777014289,41.376928002703615,2.126854449640898,Music School
393,Centre Educatiu Maristes Sants - Les Corts,C Vallespir,160.0,19,les Corts,4,Les Corts,8014,"Kindergarten, Primary & Secondary School",427663.6841756975,4581627.969725936,41.38292623820122,2.134870861542838,General School (with kindergarten)
394,Universitat Abat Oliba CEU,C Bellesguard,30.0,25,Sant Gervasi - la Bonanova,5,Sarrià-Sant Gervasi,8022,University,427020.7957638943,4584679.493821048,41.41035194077694,2.1268151064605028,University
395,Escola Sant Martí,C Sant Joan de Malta,130.0,68,el Poblenou,10,Sant Martí,8018,Kindergarten & Primary School,432949.3043195917,4583987.993791291,41.4046402299505,2.1978184408198067,Kindergarten & Primary School
396,Institut Superior Medicines Tradicionals,Carrer de Floridablanca,18.0,10,Sant Antoni,2,Eixample,8015,Secondary School & FP,429346.596,4580818.605,41.375786116082566,2.15509041156104,High School
397,Centre Educatiu AIES,C Comte de Salvatierra,5.0,26,Sant Gervasi - Galvany,5,Sarrià-Sant Gervasi,8006,FP,429295.9779966915,4583104.50866446,41.39637000478218,2.1542183847229475,FP
398,Facultat de Nàutica - UPC,Pla Palau,18.0,3,la Barceloneta,1,Ciutat Vella,8003,University,431812.6708592076,4581533.647508763,41.38243904810675,2.184497630278131,University
399,Centre Educatiu CETT,Av Can Marcet,36.0,41,la Vall d'Hebron,7,Horta-Guinardó,8035,FP,428831.16560923634,4587381.555872099,41.43485061254671,2.1481555754807795,FP
400,"I2CAT, Internet i Innovació Digital a Catalunya",C Gran Capità,2.0,21,Pedralbes,4,Les Corts,8034,University,425684.87730108434,4582134.606352726,41.38730893666497,2.111145245219858,University
401,Institut Front Marítim,C Espronceda,18.0,68,el Poblenou,10,Sant Martí,8005,Secondary School,433867.76544259087,4583754.944244999,41.40261729172288,2.208831181586877,High School
402,Centre de Formació Professional Martí-Codolar,Carrer de l'Amor,2.0,42,la Clota,7,Horta-Guinardó,8035,FP,429070.5556814,4586561.32791978,41.42748434998551,2.151116863474216,FP
403,Metàfora Centre d'Estudis d'Art-Teràpia,Papin,29.0,18,Sants,3,Sants-Montjuïc,8028,University,427491.5619594692,4581115.506690729,41.37829519044735,2.132873852906906,University
404,Escola Aldana,Carrer d'Aldana,1.0,10,Sant Antoni,2,Eixample,8015,Kindergarten & Primary School,430232.2443803526,4580781.298529834,41.37552737856383,2.165684658297076,Kindergarten & Primary School
405,"CEV, Centre de Comunicació, Imatge i So",Carrer del Perú,174.0,71,Provençals del Poblenou,10,Sant Martí,8020,Informatics Training,433239.842,4584813.714,41.41210144132233,2.201202960160327,Informatics Training
406,Centre Educatiu Mare de Déu de Núria,C Mallorca,598.0,64,el Camp de l'Arpa del Clot,10,Sant Martí,8026,"Kindergarten, Primary & Secondary School",431916.3242135977,4584686.4967736,41.41084460865554,2.1853826731105084,General School (with kindergarten)
407,Centre Educatiu FEP Santíssima Trinitat,C Mare Déu Lorda,3.0,57,la Trinitat Vella,9,Sant Andreu,8033,"Kindergarten, Primary & Secondary School",432444.2912036578,4589082.307047884,41.45048074624148,2.1912078909633537,General School (with kindergarten)
408,Escola Pia Sant Antoni,Rda Sant Pau,72.0,1,el Raval,1,Ciutat Vella,8001,"Kindergarten, Primary, Secondary School & FP",430123.9253763675,4581057.224814002,41.378003162355824,2.164357651526934,General School (with kindergarten)
409,Escola Torrent de Can Carabassa,Carrer del Llobregós,17.0,36,la Font d'en Fargues,7,Horta-Guinardó,8032,Kindergarten & Primary School,430055.5569055908,4586521.278509454,41.42721001240695,2.1629087689242863,Kindergarten & Primary School
410,Centre Educatiu Sant Francesc Xavier,C Bòbila,26.0,11,el Poble-sec,3,Sants-Montjuïc,8004,"Kindergarten, Primary & Secondary School",429592.6216676808,4580459.138542262,41.372570080494505,2.1580739573232206,General School (with kindergarten)
411,Centre Educatiu Sant Marc de Sarrià,Carrer de Carrasco i Formiguera,12.0,23,Sarrià,5,Sarrià-Sant Gervasi,8017,"Kindergarten, Primary & Secondary School",426669.22738431534,4583735.001955256,41.40181333539779,2.122723553390357,General School (with kindergarten)
412,Programa d'Estudis Independents,Pl Àngels,1.0,1,el Raval,1,Ciutat Vella,8001,University,430347.9170788345,4581634.635224572,41.38322313755374,2.166969712908759,University
413,Centre Educatiu FEP Mare Alfonsa Cavín,Av Rasos de Peguera,57.0,55,Ciutat Meridiana,8,Nou Barris,8033,"Kindergarten, Primary & Secondary School",431113.9218781678,4590205.774842327,41.46048628256781,2.1751537897804525,General School (with kindergarten)
414,Escola de Gemmologia,C Martí i Franquès,2.0,20,la Maternitat i Sant Ramon,4,Les Corts,8028,University,426398.6264363182,4581801.05176377,41.38437037725497,2.1197216758551365,University
415,Campus Docent Sant Joan de Déu - Fundació Privada,C Miret i Sans,10.0,21,Pedralbes,4,Les Corts,8034,University,425723.98782802006,4582555.473254889,41.39110310485633,2.1115613711320567,University
416,Institut Organització Control Sistemes Industrials,Av Diagonal,647.0,20,la Maternitat i Sant Ramon,4,Les Corts,8028,University,426035.4439730002,4581773.127957006,41.38408557109426,2.1153818887824603,University
417,Facultat de Filosofia - UB,C Montalegre,6.0,1,el Raval,1,Ciutat Vella,8001,University,430379.0357577841,4581724.135357528,41.38403193047776,2.167331566974877,University
418,Facultat de Ciències de la Comunicació - UIC,C Immaculada,22.0,25,Sant Gervasi - la Bonanova,5,Sarrià-Sant Gervasi,8017,University,426716.4668234499,4584203.063400844,41.406033260654574,2.123231960089889,University
419,Institut Pedralbes,Av Esplugues,40.0,21,Pedralbes,4,Les Corts,8034,Secondary School & FP,425238.0756659177,4582036.157214868,41.38638084973198,2.1058139935837232,High School
420,Institut La Sagrera Sant Andreu,Carrer de Fernando Pessoa,10.0,60,Sant Andreu,9,Sant Andreu,8030,Secondary School,432609.42629234,4587829.82023473,41.43921392279108,2.193324471337654,High School
421,Centre Educatiu Lys,C Puig-reig,9.0,27,el Putxet i el Farró,5,Sarrià-Sant Gervasi,8006,Kindergarten & Primary School,428379.81970093184,4584036.8323782375,41.40468599924156,2.143149911073567,Kindergarten & Primary School
422,Programa de Coeducació,C Sant Antoni Maria Claret,171.0,35,el Guinardó,7,Horta-Guinardó,8025,University,431211.3219929034,4585020.379375686,41.41379174747705,2.176910232352591,University
423,Centre Educatiu FEP L'Esperança,C Quito,25.0,58,Baró de Viver,9,Sant Andreu,8030,"Kindergarten, Primary, Secondary School & FP",433271.9872579461,4588664.5252803285,41.44678716758727,2.2011624839908794,General School (with kindergarten)
424,Centre Educatiu Montseny-Poblenou,C Pallars,410.0,69,Diagonal Mar i el Front Marítim del Poblenou,10,Sant Martí,8019,"Kindergarten, Primary & Secondary School",434018.07680787146,4584644.306601465,41.41063990102234,2.21053229696309,General School (with kindergarten)
425,Centre Educatiu La Salle Bonanova,Pg Bonanova,8.0,25,Sant Gervasi - la Bonanova,5,Sarrià-Sant Gervasi,8022,"Kindergarten, Primary & Secondary School",427490.3043031039,4584218.225419785,41.4062399904267,2.132487351954574,General School (with kindergarten)
426,Centre Educatiu Josep Pons,C Loreto,42.0,19,les Corts,4,Les Corts,8029,FP,428316.3306373176,4582536.353000989,41.39116611751545,2.1425680658577364,FP
427,Centre per a la Innovació Local,C Mallorca,244.0,7,la Dreta de l'Eixample,2,Eixample,8008,University,429920.926000876,4582734.497404198,41.39309214642118,2.16173623805482,University
428,Grup de Tecnologia Musical,Carrer de Tànger,122.0,66,el Parc i la Llacuna del Poblenou,10,Sant Martí,8018,University,432673.042,4583881.157,41.40365489256486,2.194525488265476,University
429,Centre de Disseny d'Equips Industrials,C Llorens i Artigas,4.0,20,la Maternitat i Sant Ramon,4,Les Corts,8028,University,426088.55448720185,4581634.29532349,41.38284004736482,2.1160339544499878,University
430,Centre de Desenvolupament Electrònic i Informàtic,C Quatre Camins,30.0,25,Sant Gervasi - la Bonanova,5,Sarrià-Sant Gervasi,8022,University,427290.6671651552,4584575.7108910885,41.40944167227188,2.1300561885083784,University
431,Fundació CIM,C Llorens i Artigas,4.0,20,la Maternitat i Sant Ramon,4,Les Corts,8028,University,426088.55448720185,4581634.29532349,41.38284004736482,2.1160339544499878,University
432,Centre d'Ensenyament Musical Barcelona,G.V. Corts Catalanes,498.0,10,Sant Antoni,2,Eixample,8015,Music School,429527.9261056407,4581371.928618584,41.38078561863176,2.15719428653302,Music School
433,Centre Educatiu Maria Auxiliadora,C Sepúlveda,67.0,10,Sant Antoni,2,Eixample,8015,Primary School,429429.40111658187,4581119.144065334,41.378500237499885,2.156045542288389,Primary School
434,Institut Diagnosi Ambiental i Estudis de l'Aigua,C Jordi Girona,18.0,21,Pedralbes,4,Les Corts,8034,University,426003.0321995832,4582175.518023312,41.38770673949005,2.114945140444898,University
435,Escola de Música Juan Pedro Carrero,C Carme,15.0,1,el Raval,1,Ciutat Vella,8001,Music School,430668.0649834884,4581551.797098837,41.38250469332915,2.170807735012897,Music School
436,Centre Educatiu Stucom Pelai,C Pelai,8.0,1,el Raval,1,Ciutat Vella,8001,FP,430210.9323509744,4581921.9513924215,41.38579903052059,2.165298464715733,FP
437,Institut d'Investigacions Biomèdiques de Barcelona,C Rosselló,161.0,8,l'Antiga Esquerra de l'Eixample,2,Eixample,8036,University,429213.6579352169,4582445.690074615,41.39042902342673,2.1533107565639185,University
438,Escola Alexandre Galí,Passeig Marítim de la Barceloneta - Oriol Bohigas,11.0,3,la Barceloneta,1,Ciutat Vella,8003,Kindergarten & Primary School,432551.1287075016,4581395.406006126,41.38125618970832,2.1933439332206177,Kindergarten & Primary School
439,Centre Educatiu Alfageme,Pg Zona Franca,198.0,13,la Marina de Port,3,Sants-Montjuïc,8038,Kindergarten & Primary School,427980.4666073941,4579239.630110648,41.36144375397313,2.1389428255750764,Kindergarten & Primary School
440,Escola Baixeras,C Salvador Aulet,1.0,2,el Barri Gòtic,1,Ciutat Vella,8002,Kindergarten & Primary School,431420.311663264,4581585.264925634,41.38287060220196,2.179799736381276,Kindergarten & Primary School
441,Escola Josep Maria Jujol,C Riera de Sant Miquel,39.0,31,la Vila de Gràcia,6,Gràcia,8006,Kindergarten & Primary School,429438.3465705756,4583307.985709356,41.39821515341866,2.1558975483762164,Kindergarten & Primary School
442,Centre Educatiu Reial Monestir de Santa Isabel,C Cardenal Sentmenat,1.0,23,Sarrià,5,Sarrià-Sant Gervasi,8017,"Kindergarten, Primary & Secondary School",426953.75972975575,4583229.187950401,41.39728359109981,2.126188139711606,General School (with kindergarten)
443,Escola Can Fabra,Carrer de Sant Adrià,20.0,60,Sant Andreu,9,Sant Andreu,8030,Kindergarten & Primary School,432395.6290474628,4587230.04407906,41.433793974354174,2.1908326284827284,Kindergarten & Primary School
444,Parc d'Innovació Tecnològica i Empresarial La Salle,C Quatre Camins,30.0,25,Sant Gervasi - la Bonanova,5,Sarrià-Sant Gervasi,8022,University,427290.6671651552,4584575.7108910885,41.40944167227188,2.1300561885083784,University
445,Escola de Música Ricoma i Fills,Entença,192.0,9,la Nova Esquerra de l'Eixample,2,Eixample,8029,Music School,428451.8104702125,4581832.700895679,41.3848406513124,2.1442715185263457,Music School
446,Facultat de Psicologia - UB,Pg Vall d'Hebron,171.0,40,Montbau,7,Horta-Guinardó,8035,University,428548.1582904488,4587689.215815345,41.43759643674505,2.1447321476703194,University
447,Centre Educatiu Santa Dorotea,Pg Sant Joan Bosco,24.0,24,les Tres Torres,5,Sarrià-Sant Gervasi,8017,"Kindergarten, Primary & Secondary School",427190.6175195074,4582807.306116993,41.39350536143271,2.129071949183403,General School (with kindergarten)
448,Universitat Progressista d'Estiu de Catalunya,Via Laietana,16.0,4,"Sant Pere, Santa Caterina i la Ribera",1,Ciutat Vella,8003,University,431399.054,4581654.983,41.38349672051972,2.1795376304761573,University
449,Centre Educatiu Dominiques de Barcelona,C Mallorca,349.0,7,la Dreta de l'Eixample,2,Eixample,8013,"Kindergarten, Primary & Secondary School",430722.98003778886,4583552.024594604,41.40052483409696,2.171235652839304,General School (with kindergarten)
450,Escola Orlandai,C Domínguez i Miralles,1.0,23,Sarrià,5,Sarrià-Sant Gervasi,8034,Kindergarten & Primary School,426376.6333337172,4583247.105650462,41.39739233524259,2.119282896108102,Kindergarten & Primary School
451,Escola Palma de Mallorca,Pg Ciutat de Mallorca,31.0,45,Porta,8,Nou Barris,8016,Kindergarten & Primary School,431286.7848213026,4587170.067440062,41.43315968004247,2.1775688179429284,Kindergarten & Primary School
452,Escola Patronat Domènech,C Gràcia,7.0,31,la Vila de Gràcia,6,Gràcia,8012,Kindergarten & Primary School,429632.0366845281,4583327.116563104,41.39840443152677,2.1582121264591376,Kindergarten & Primary School
453,Institut Narcís Monturiol *Harmonia,C Harmonia,1.0,40,Montbau,7,Horta-Guinardó,8035,Secondary School,428572.37817959685,4587103.787523738,41.432325901404695,2.145091216559758,High School
454,Escola Pau Vila,C Font Florida,95.0,14,la Font de la Guatlla,3,Sants-Montjuïc,8004,Kindergarten & Primary School,428302.5673442816,4579846.853249267,41.3669415521691,2.1427216285174966,Kindergarten & Primary School
455,Escola Provençals,C Perú,105.0,71,Provençals del Poblenou,10,Sant Martí,8018,Kindergarten & Primary School,432763.8900367076,4584409.335645652,41.40841964863956,2.1955535808082445,Kindergarten & Primary School
456,Centre Educatiu Providencia del Corazón de Jesús,C Scala Dei,1.0,43,Horta,7,Horta-Guinardó,8031,"Kindergarten, Primary & Secondary School",429660.60647451447,4587789.776068834,41.43860035733805,2.1580348887601595,General School (with kindergarten)
457,Escola Ramon Casas,Carrer del Platí,6.0,13,la Marina de Port,3,Sants-Montjuïc,8038,Kindergarten & Primary School,427595.96741360286,4578935.459999282,41.35866971685439,2.134382603401038,Kindergarten & Primary School
458,Escola  Pràctiques,C Melcior de Palau,138.0,18,Sants,3,Sants-Montjuïc,8014,Kindergarten & Primary School,427989.3870489826,4581442.608604518,41.38128597939545,2.1387878130180185,Kindergarten & Primary School
459,Escola Reina Violant,Carrer de Trilla,18.0,31,la Vila de Gràcia,6,Gràcia,8012,Kindergarten & Primary School,429205.563693278,4583969.721206578,41.40415469495062,2.1530357611950968,Kindergarten & Primary School
460,Centre Educatiu Sagrado Corazón *Ribes,C Ribes,65.0,5,el Fort Pienc,2,Eixample,8013,"Kindergarten, Primary & Secondary School",431778.179805865,4583450.6577978255,41.3997020797323,2.183869243060061,General School (with kindergarten)
461,Institut Milà i Fontanals,Pl Josep M Folch i Torres,1.0,1,el Raval,1,Ciutat Vella,8001,Secondary School,430352.3331914097,4580883.492557003,41.37645821131016,2.1671088482836027,High School
462,Institut Martí Pous,C Sant Adrià,14.0,60,Sant Andreu,9,Sant Andreu,8030,Secondary School,432386.406140189,4587214.030233236,41.433648966691024,2.1907240401224644,High School
463,Parc de Recerca i Innovació de la Universitat Politècnica de Catalunya,C Jordi Girona,31.0,21,Pedralbes,4,Les Corts,8034,University,425770.4464731991,4582117.124542109,41.38715938661021,2.112170729434784,University
464,Escola Antoni Balmanya,Plaça de Margarita Brender Rubira,3.0,64,el Camp de l'Arpa del Clot,10,Sant Martí,8041,Kindergarten & Primary School,431704.777,4585302.015,41.416370431796125,2.1827822866030013,Kindergarten & Primary School
465,Centre Educatiu Arrels,C Cardenal Tedeschini,76.0,62,el Congrés i els Indians,9,Sant Andreu,8027,"Kindergarten, Primary & Secondary School",431569.7892214441,4586447.639536691,41.42667719385,2.1810375556219155,General School (with kindergarten)
466,Institut Rambla Prim,C Cristóbal de Moura,223.0,70,el Besòs i el Maresme,10,Sant Martí,8019,Secondary School & FP,434185.0670749976,4585211.497104094,41.4157621286334,2.21246843801822,High School
467,Escola Bàrkeno,C Cisell,15.0,13,la Marina de Port,3,Sants-Montjuïc,8038,Kindergarten & Primary School,428499.89869594,4578571.699744943,41.35547421994292,2.145231147930288,Kindergarten & Primary School
468,Escola Barrufet,Passatge del Vapor Vell,7.0,18,Sants,3,Sants-Montjuïc,8028,Kindergarten & Primary School,427647.0804802961,4580962.220220291,41.37692859666653,2.134751788846474,Kindergarten & Primary School
469,Escola Bogatell,Carrer de Ramon Turró,74.0,67,la Vila Olímpica del Poblenou,10,Sant Martí,8005,Kindergarten & Primary School,432656.49741259264,4582746.631841681,41.39343515484429,2.194453764154044,Kindergarten & Primary School
470,Institut Miquel Tarradell,C Àngels,1.0,1,el Raval,1,Ciutat Vella,8001,Secondary School & FP,430477.2368538652,4581478.559774426,41.381828600175794,2.168534112133251,High School
471,Escola Vila Olímpica,Carrer de Carmen Amaya,2.0,68,el Poblenou,10,Sant Martí,8005,Kindergarten & Primary School,433428.307877499,4582919.338309602,41.39505493685655,2.203666123017716,Kindergarten & Primary School
